{
  "schema_version": 1,
  "generated_at": "2026-04-24T15:01:27Z",
  "stops": [
    {
      "label": "Trump Tower, Manhattan",
      "city": "New York, NY",
      "lat": 40.7625,
      "lng": -73.9737,
      "phase": "campaign-2016",
      "type": "headquarters",
      "date": "2015-06-16",
      "source": "fixed"
    },
    {
      "date": "2015-06-16",
      "city": "Des Moines, IA",
      "venue": "Hoyt Sherman Place",
      "phase": "campaign-2016",
      "type": "rally",
      "source": "https://en.wikipedia.org/wiki/List_of_rallies_for_the_2016_Donald_Trump_presidential_campaign",
      "lat": 41.5868654,
      "lng": -93.6249494,
      "label": "Hoyt Sherman Place"
    },
    {
      "date": "2015-06-17",
      "city": "Manchester, NH",
      "venue": "Manchester Community College",
      "phase": "campaign-2016",
      "type": "rally",
      "source": "https://en.wikipedia.org/wiki/List_of_rallies_for_the_2016_Donald_Trump_presidential_campaign",
      "lat": 42.9956397,
      "lng": -71.4547891,
      "label": "Manchester Community College"
    },
    {
      "date": "2015-07-11",
      "city": "Phoenix, AZ",
      "venue": "Phoenix Convention Center",
      "phase": "campaign-2016",
      "type": "rally",
      "source": "https://en.wikipedia.org/wiki/List_of_rallies_for_the_2016_Donald_Trump_presidential_campaign",
      "lat": 33.4484367,
      "lng": -112.074141,
      "label": "Phoenix Convention Center"
    },
    {
      "date": "2015-07-21",
      "city": "Sun City, SC",
      "venue": "Magnolia Hall",
      "phase": "campaign-2016",
      "type": "rally",
      "source": "https://en.wikipedia.org/wiki/List_of_rallies_for_the_2016_Donald_Trump_presidential_campaign",
      "lat": 32.3033442,
      "lng": -80.9555618,
      "label": "Magnolia Hall"
    },
    {
      "date": "2015-07-25",
      "city": "Oskaloosa, IA",
      "venue": "Oskaloosa High School",
      "phase": "campaign-2016",
      "type": "rally",
      "source": "https://en.wikipedia.org/wiki/List_of_rallies_for_the_2016_Donald_Trump_presidential_campaign",
      "lat": 41.2951037,
      "lng": -92.6448451,
      "label": "Oskaloosa High School"
    },
    {
      "date": "2015-08-14",
      "city": "Hampton, NH",
      "venue": "Winnacunnet High School",
      "phase": "campaign-2016",
      "type": "rally",
      "source": "https://en.wikipedia.org/wiki/List_of_rallies_for_the_2016_Donald_Trump_presidential_campaign",
      "lat": 42.9417199,
      "lng": -70.8378746,
      "label": "Winnacunnet High School"
    },
    {
      "date": "2015-08-21",
      "city": "Mobile, AL",
      "venue": "Ladd\u2013Peebles Stadium",
      "phase": "campaign-2016",
      "type": "rally",
      "source": "https://en.wikipedia.org/wiki/List_of_rallies_for_the_2016_Donald_Trump_presidential_campaign",
      "lat": 30.6913462,
      "lng": -88.0437509,
      "label": "Ladd\u2013Peebles Stadium"
    },
    {
      "date": "2015-08-25",
      "city": "Dubuque, IA",
      "venue": "Grand River Center",
      "phase": "campaign-2016",
      "type": "rally",
      "source": "https://en.wikipedia.org/wiki/List_of_rallies_for_the_2016_Donald_Trump_presidential_campaign",
      "lat": 42.5006243,
      "lng": -90.6647985,
      "label": "Grand River Center"
    },
    {
      "date": "2015-08-27",
      "city": "Greenville, SC",
      "venue": "TD Convention Center",
      "phase": "campaign-2016",
      "type": "rally",
      "source": "https://en.wikipedia.org/wiki/List_of_rallies_for_the_2016_Donald_Trump_presidential_campaign",
      "lat": 34.851354,
      "lng": -82.3984882,
      "label": "TD Convention Center"
    },
    {
      "date": "2015-08-28",
      "city": "Norwood, MA",
      "venue": "Home of Ernie Boch, Jr.",
      "phase": "campaign-2016",
      "type": "rally",
      "source": "https://en.wikipedia.org/wiki/List_of_rallies_for_the_2016_Donald_Trump_presidential_campaign",
      "lat": 42.194543,
      "lng": -71.1994976,
      "label": "Home of Ernie Boch, Jr."
    },
    {
      "date": "2015-09-14",
      "city": "Dallas, TX",
      "venue": "American Airlines Center",
      "phase": "campaign-2016",
      "type": "rally",
      "source": "https://en.wikipedia.org/wiki/List_of_rallies_for_the_2016_Donald_Trump_presidential_campaign",
      "lat": 32.7762719,
      "lng": -96.7968559,
      "label": "American Airlines Center"
    },
    {
      "date": "2015-09-15",
      "city": "Los Angeles, CA",
      "venue": "USS Iowa",
      "phase": "campaign-2016",
      "type": "rally",
      "source": "https://en.wikipedia.org/wiki/List_of_rallies_for_the_2016_Donald_Trump_presidential_campaign",
      "lat": 34.0536909,
      "lng": -118.242766,
      "label": "USS Iowa"
    },
    {
      "date": "2015-09-25",
      "city": "Oklahoma City, OK",
      "venue": "Oklahoma State Fair",
      "phase": "campaign-2016",
      "type": "rally",
      "source": "https://en.wikipedia.org/wiki/List_of_rallies_for_the_2016_Donald_Trump_presidential_campaign",
      "lat": 35.4729886,
      "lng": -97.5170536,
      "label": "Oklahoma State Fair"
    },
    {
      "date": "2015-09-30",
      "city": "Keene, NH",
      "venue": "Keene High School",
      "phase": "campaign-2016",
      "type": "rally",
      "source": "https://en.wikipedia.org/wiki/List_of_rallies_for_the_2016_Donald_Trump_presidential_campaign",
      "lat": 42.933597,
      "lng": -72.2784264,
      "label": "Keene High School"
    },
    {
      "date": "2015-10-03",
      "city": "Franklin, TN",
      "venue": "Dortch Stove Works",
      "phase": "campaign-2016",
      "type": "rally",
      "source": "https://en.wikipedia.org/wiki/List_of_rallies_for_the_2016_Donald_Trump_presidential_campaign",
      "lat": 35.925206,
      "lng": -86.8689419,
      "label": "Dortch Stove Works"
    },
    {
      "date": "2015-10-07",
      "city": "Waterloo, IA",
      "venue": "Electric Park Ballroom",
      "phase": "campaign-2016",
      "type": "rally",
      "source": "https://en.wikipedia.org/wiki/List_of_rallies_for_the_2016_Donald_Trump_presidential_campaign",
      "lat": 42.498275,
      "lng": -92.3328743,
      "label": "Electric Park Ballroom"
    },
    {
      "date": "2015-10-10",
      "city": "Norcross, GA",
      "venue": "North Atlanta Trade Center",
      "phase": "campaign-2016",
      "type": "rally",
      "source": "https://en.wikipedia.org/wiki/List_of_rallies_for_the_2016_Donald_Trump_presidential_campaign",
      "lat": 33.9412127,
      "lng": -84.2135309,
      "label": "North Atlanta Trade Center"
    },
    {
      "date": "2015-10-16",
      "city": "Tyngsboro, MA",
      "venue": "Tyngsboro Elementary School",
      "phase": "campaign-2016",
      "type": "rally",
      "source": "https://en.wikipedia.org/wiki/List_of_rallies_for_the_2016_Donald_Trump_presidential_campaign",
      "lat": 42.6658853,
      "lng": -71.4101576,
      "label": "Tyngsboro Elementary School"
    },
    {
      "date": "2015-10-19",
      "city": "Anderson, SC",
      "venue": "Civic Center of Anderson",
      "phase": "campaign-2016",
      "type": "rally",
      "source": "https://en.wikipedia.org/wiki/List_of_rallies_for_the_2016_Donald_Trump_presidential_campaign",
      "lat": 34.5258335,
      "lng": -82.652962,
      "label": "Civic Center of Anderson"
    },
    {
      "date": "2015-10-23",
      "city": "Miami, FL",
      "venue": "Trump National Doral Miami",
      "phase": "campaign-2016",
      "type": "rally",
      "source": "https://en.wikipedia.org/wiki/List_of_rallies_for_the_2016_Donald_Trump_presidential_campaign",
      "lat": 25.7741566,
      "lng": -80.1935973,
      "label": "Trump National Doral Miami"
    },
    {
      "date": "2015-10-24",
      "city": "Jacksonville, FL",
      "venue": "Jacksonville Landing",
      "phase": "campaign-2016",
      "type": "rally",
      "source": "https://en.wikipedia.org/wiki/List_of_rallies_for_the_2016_Donald_Trump_presidential_campaign",
      "lat": 30.3262247,
      "lng": -81.6579179,
      "label": "Jacksonville Landing"
    },
    {
      "date": "2015-10-27",
      "city": "Sioux City, IA",
      "venue": "West High School",
      "phase": "campaign-2016",
      "type": "rally",
      "source": "https://en.wikipedia.org/wiki/List_of_rallies_for_the_2016_Donald_Trump_presidential_campaign",
      "lat": 42.4966815,
      "lng": -96.4058782,
      "label": "West High School"
    },
    {
      "date": "2015-10-29",
      "city": "Sparks, NV",
      "venue": "Nugget Casino Resort",
      "phase": "campaign-2016",
      "type": "rally",
      "source": "https://en.wikipedia.org/wiki/List_of_rallies_for_the_2016_Donald_Trump_presidential_campaign",
      "lat": 39.5404679,
      "lng": -119.7487235,
      "label": "Nugget Casino Resort"
    },
    {
      "date": "2015-10-31",
      "city": "Norfolk, VA",
      "venue": "USS Wisconsin",
      "phase": "campaign-2016",
      "type": "rally",
      "source": "https://en.wikipedia.org/wiki/List_of_rallies_for_the_2016_Donald_Trump_presidential_campaign",
      "lat": 36.8493695,
      "lng": -76.2899539,
      "label": "USS Wisconsin"
    },
    {
      "date": "2015-11-09",
      "city": "Springfield, IL",
      "venue": "Prairie Capital Convention Center",
      "phase": "campaign-2016",
      "type": "rally",
      "source": "https://en.wikipedia.org/wiki/List_of_rallies_for_the_2016_Donald_Trump_presidential_campaign",
      "lat": 39.7990175,
      "lng": -89.6439575,
      "label": "Prairie Capital Convention Center"
    },
    {
      "date": "2015-11-12",
      "city": "Fort Dodge, IA",
      "venue": "Iowa Central Community College",
      "phase": "campaign-2016",
      "type": "rally",
      "source": "https://en.wikipedia.org/wiki/List_of_rallies_for_the_2016_Donald_Trump_presidential_campaign",
      "lat": 42.5044017,
      "lng": -94.1910044,
      "label": "Iowa Central Community College"
    },
    {
      "date": "2015-11-14",
      "city": "Beaumont, TX",
      "venue": "Ford Arena",
      "phase": "campaign-2016",
      "type": "rally",
      "source": "https://en.wikipedia.org/wiki/List_of_rallies_for_the_2016_Donald_Trump_presidential_campaign",
      "lat": 30.0829344,
      "lng": -94.0984277,
      "label": "Ford Arena"
    },
    {
      "date": "2015-11-16",
      "city": "Knoxville, TN",
      "venue": "Knoxville Convention Center",
      "phase": "campaign-2016",
      "type": "rally",
      "source": "https://en.wikipedia.org/wiki/List_of_rallies_for_the_2016_Donald_Trump_presidential_campaign",
      "lat": 35.9603948,
      "lng": -83.9210261,
      "label": "Knoxville Convention Center"
    },
    {
      "date": "2015-11-18",
      "city": "Worcester, MA",
      "venue": "DCU Center",
      "phase": "campaign-2016",
      "type": "rally",
      "source": "https://en.wikipedia.org/wiki/List_of_rallies_for_the_2016_Donald_Trump_presidential_campaign",
      "lat": 42.2625621,
      "lng": -71.8018877,
      "label": "DCU Center"
    },
    {
      "date": "2015-11-19",
      "city": "Newton, IA",
      "venue": "Maytag Auditorium, DMACC Newton Campus",
      "phase": "campaign-2016",
      "type": "rally",
      "source": "https://en.wikipedia.org/wiki/List_of_rallies_for_the_2016_Donald_Trump_presidential_campaign",
      "lat": 41.6997139,
      "lng": -93.0538852,
      "label": "Maytag Auditorium, DMACC Newton Campus"
    },
    {
      "date": "2015-11-21",
      "city": "Birmingham, AL",
      "venue": "Birmingham\u2013Jefferson Convention Complex",
      "phase": "campaign-2016",
      "type": "rally",
      "source": "https://en.wikipedia.org/wiki/List_of_rallies_for_the_2016_Donald_Trump_presidential_campaign",
      "lat": 33.5206824,
      "lng": -86.8024326,
      "label": "Birmingham\u2013Jefferson Convention Complex"
    },
    {
      "date": "2015-11-23",
      "city": "Columbus, OH",
      "venue": "Greater Columbus Convention Center",
      "phase": "campaign-2016",
      "type": "rally",
      "source": "https://en.wikipedia.org/wiki/List_of_rallies_for_the_2016_Donald_Trump_presidential_campaign",
      "lat": 39.9622601,
      "lng": -83.0007065,
      "label": "Greater Columbus Convention Center"
    },
    {
      "date": "2015-11-24",
      "city": "Myrtle Beach, SC",
      "venue": "Myrtle Beach Convention Center",
      "phase": "campaign-2016",
      "type": "rally",
      "source": "https://en.wikipedia.org/wiki/List_of_rallies_for_the_2016_Donald_Trump_presidential_campaign",
      "lat": 33.6956461,
      "lng": -78.8900409,
      "label": "Myrtle Beach Convention Center"
    },
    {
      "date": "2015-11-28",
      "city": "Sarasota, FL",
      "venue": "Robarts Arena",
      "phase": "campaign-2016",
      "type": "rally",
      "source": "https://en.wikipedia.org/wiki/List_of_rallies_for_the_2016_Donald_Trump_presidential_campaign",
      "lat": 27.3365805,
      "lng": -82.5308545,
      "label": "Robarts Arena"
    },
    {
      "date": "2015-11-30",
      "city": "Macon, GA",
      "venue": "Macon Coliseum",
      "phase": "campaign-2016",
      "type": "rally",
      "source": "https://en.wikipedia.org/wiki/List_of_rallies_for_the_2016_Donald_Trump_presidential_campaign",
      "lat": 32.8406946,
      "lng": -83.6324022,
      "label": "Macon Coliseum"
    },
    {
      "date": "2015-12-01",
      "city": "Waterville Valley, NH",
      "venue": "White Mountain Athletic Club",
      "phase": "campaign-2016",
      "type": "rally",
      "source": "https://en.wikipedia.org/wiki/List_of_rallies_for_the_2016_Donald_Trump_presidential_campaign",
      "lat": 43.9496312,
      "lng": -71.5056972,
      "label": "White Mountain Athletic Club"
    },
    {
      "date": "2015-12-02",
      "city": "Manassas, VA",
      "venue": "Prince William County Fairgrounds",
      "phase": "campaign-2016",
      "type": "rally",
      "source": "https://en.wikipedia.org/wiki/List_of_rallies_for_the_2016_Donald_Trump_presidential_campaign",
      "lat": 38.7509488,
      "lng": -77.4752667,
      "label": "Prince William County Fairgrounds"
    },
    {
      "date": "2015-12-04",
      "city": "Raleigh, NC",
      "venue": "Dorton Arena",
      "phase": "campaign-2016",
      "type": "rally",
      "source": "https://en.wikipedia.org/wiki/List_of_rallies_for_the_2016_Donald_Trump_presidential_campaign",
      "lat": 35.7803977,
      "lng": -78.6390989,
      "label": "Dorton Arena"
    },
    {
      "date": "2015-12-05",
      "city": "Davenport, IA",
      "venue": "Mississippi Valley Fairgrounds",
      "phase": "campaign-2016",
      "type": "rally",
      "source": "https://en.wikipedia.org/wiki/List_of_rallies_for_the_2016_Donald_Trump_presidential_campaign",
      "lat": 41.5235808,
      "lng": -90.5770967,
      "label": "Mississippi Valley Fairgrounds"
    },
    {
      "date": "2015-12-05",
      "city": "Spencer, IA",
      "venue": "Clay County Regional Events Center",
      "phase": "campaign-2016",
      "type": "rally",
      "source": "https://en.wikipedia.org/wiki/List_of_rallies_for_the_2016_Donald_Trump_presidential_campaign",
      "lat": 43.1415519,
      "lng": -95.1477536,
      "label": "Clay County Regional Events Center"
    },
    {
      "date": "2015-12-07",
      "city": "Mount Pleasant, SC",
      "venue": "USS Yorktown",
      "phase": "campaign-2016",
      "type": "rally",
      "source": "https://en.wikipedia.org/wiki/List_of_rallies_for_the_2016_Donald_Trump_presidential_campaign",
      "lat": 32.7940651,
      "lng": -79.8625851,
      "label": "USS Yorktown"
    },
    {
      "date": "2015-12-11",
      "city": "Des Moines, IA",
      "venue": "Varied Industries Building, Iowa State Fairgrounds",
      "phase": "campaign-2016",
      "type": "rally",
      "source": "https://en.wikipedia.org/wiki/List_of_rallies_for_the_2016_Donald_Trump_presidential_campaign",
      "lat": 41.5868654,
      "lng": -93.6249494,
      "label": "Varied Industries Building, Iowa State Fairgrounds"
    },
    {
      "date": "2015-12-12",
      "city": "Aiken, SC",
      "venue": "USC Aiken Convocation Center",
      "phase": "campaign-2016",
      "type": "rally",
      "source": "https://en.wikipedia.org/wiki/List_of_rallies_for_the_2016_Donald_Trump_presidential_campaign",
      "lat": 33.5723191,
      "lng": -81.6182086,
      "label": "USC Aiken Convocation Center"
    },
    {
      "date": "2015-12-14",
      "city": "Las Vegas, NV",
      "venue": "Westgate Las Vegas Resort & Casino",
      "phase": "campaign-2016",
      "type": "rally",
      "source": "https://en.wikipedia.org/wiki/List_of_rallies_for_the_2016_Donald_Trump_presidential_campaign",
      "lat": 36.1674263,
      "lng": -115.1484131,
      "label": "Westgate Las Vegas Resort & Casino"
    },
    {
      "date": "2015-12-16",
      "city": "Mesa, AZ",
      "venue": "Phoenix\u2013Mesa Gateway Airport",
      "phase": "campaign-2016",
      "type": "rally",
      "source": "https://en.wikipedia.org/wiki/List_of_rallies_for_the_2016_Donald_Trump_presidential_campaign",
      "lat": 33.4151005,
      "lng": -111.831455,
      "label": "Phoenix\u2013Mesa Gateway Airport"
    },
    {
      "date": "2015-12-19",
      "city": "Cedar Rapids, IA",
      "venue": "Veterans Memorial Coliseum",
      "phase": "campaign-2016",
      "type": "rally",
      "source": "https://en.wikipedia.org/wiki/List_of_rallies_for_the_2016_Donald_Trump_presidential_campaign",
      "lat": 41.9758872,
      "lng": -91.6704053,
      "label": "Veterans Memorial Coliseum"
    },
    {
      "date": "2015-12-21",
      "city": "Grand Rapids, MI",
      "venue": "DeltaPlex Arena",
      "phase": "campaign-2016",
      "type": "rally",
      "source": "https://en.wikipedia.org/wiki/List_of_rallies_for_the_2016_Donald_Trump_presidential_campaign",
      "lat": 42.9632425,
      "lng": -85.6678639,
      "label": "DeltaPlex Arena"
    },
    {
      "date": "2015-12-28",
      "city": "Nashua, NH",
      "venue": "Pennichuck Middle School",
      "phase": "campaign-2016",
      "type": "rally",
      "source": "https://en.wikipedia.org/wiki/List_of_rallies_for_the_2016_Donald_Trump_presidential_campaign",
      "lat": 42.7656251,
      "lng": -71.4677032,
      "label": "Pennichuck Middle School"
    },
    {
      "date": "2015-12-29",
      "city": "Council Bluffs, IA",
      "venue": "Mid-America Center",
      "phase": "campaign-2016",
      "type": "rally",
      "source": "https://en.wikipedia.org/wiki/List_of_rallies_for_the_2016_Donald_Trump_presidential_campaign",
      "lat": 41.258841,
      "lng": -95.8519484,
      "label": "Mid-America Center"
    },
    {
      "date": "2015-12-30",
      "city": "Hilton Head, SC",
      "venue": "The Westin Hilton Head Island Resort & Spa",
      "phase": "campaign-2016",
      "type": "rally",
      "source": "https://en.wikipedia.org/wiki/List_of_rallies_for_the_2016_Donald_Trump_presidential_campaign",
      "lat": 32.1618488,
      "lng": -80.7512616,
      "label": "The Westin Hilton Head Island Resort & Spa"
    },
    {
      "date": "2016-01-02",
      "city": "Biloxi, MS",
      "venue": "Mississippi Coast Coliseum",
      "phase": "campaign-2016",
      "type": "rally",
      "source": "https://en.wikipedia.org/wiki/List_of_rallies_for_the_2016_Donald_Trump_presidential_campaign",
      "lat": 30.4007626,
      "lng": -88.8893818,
      "label": "Mississippi Coast Coliseum"
    },
    {
      "date": "2016-01-04",
      "city": "Lowell, MA",
      "venue": "Tsongas Center",
      "phase": "campaign-2016",
      "type": "rally",
      "source": "https://en.wikipedia.org/wiki/List_of_rallies_for_the_2016_Donald_Trump_presidential_campaign",
      "lat": 42.6414437,
      "lng": -71.3085329,
      "label": "Tsongas Center"
    },
    {
      "date": "2016-01-05",
      "city": "Claremont, NH",
      "venue": "Stevens High School",
      "phase": "campaign-2016",
      "type": "rally",
      "source": "https://en.wikipedia.org/wiki/List_of_rallies_for_the_2016_Donald_Trump_presidential_campaign",
      "lat": 43.3727579,
      "lng": -72.3382504,
      "label": "Stevens High School"
    },
    {
      "date": "2016-01-07",
      "city": "Burlington, VT",
      "venue": "Flynn Center for the Performing Arts",
      "phase": "campaign-2016",
      "type": "rally",
      "source": "https://en.wikipedia.org/wiki/List_of_rallies_for_the_2016_Donald_Trump_presidential_campaign",
      "lat": 44.4761601,
      "lng": -73.212906,
      "label": "Flynn Center for the Performing Arts"
    },
    {
      "date": "2016-01-08",
      "city": "Rock Hill, SC",
      "venue": "Winthrop Coliseum",
      "phase": "campaign-2016",
      "type": "rally",
      "source": "https://en.wikipedia.org/wiki/List_of_rallies_for_the_2016_Donald_Trump_presidential_campaign",
      "lat": 34.9248667,
      "lng": -81.0250784,
      "label": "Winthrop Coliseum"
    },
    {
      "date": "2016-01-09",
      "city": "Clear Lake, IA",
      "venue": "Surf Ballroom",
      "phase": "campaign-2016",
      "type": "rally",
      "source": "https://en.wikipedia.org/wiki/List_of_rallies_for_the_2016_Donald_Trump_presidential_campaign",
      "lat": 43.1370751,
      "lng": -93.3813637,
      "label": "Surf Ballroom"
    },
    {
      "date": "2016-01-09",
      "city": "Ottumwa, IA",
      "venue": "Bridgeview Center",
      "phase": "campaign-2016",
      "type": "rally",
      "source": "https://en.wikipedia.org/wiki/List_of_rallies_for_the_2016_Donald_Trump_presidential_campaign",
      "lat": 41.0195659,
      "lng": -92.4116886,
      "label": "Bridgeview Center"
    },
    {
      "date": "2016-01-10",
      "city": "Reno, NV",
      "venue": "Reno Events Center",
      "phase": "campaign-2016",
      "type": "rally",
      "source": "https://en.wikipedia.org/wiki/List_of_rallies_for_the_2016_Donald_Trump_presidential_campaign",
      "lat": 39.5261788,
      "lng": -119.812658,
      "label": "Reno Events Center"
    },
    {
      "date": "2016-01-11",
      "city": "Windham, NH",
      "venue": "Castleton Banquet and Conference Center",
      "phase": "campaign-2016",
      "type": "rally",
      "source": "https://en.wikipedia.org/wiki/List_of_rallies_for_the_2016_Donald_Trump_presidential_campaign",
      "lat": 42.8006441,
      "lng": -71.304229,
      "label": "Castleton Banquet and Conference Center"
    },
    {
      "date": "2016-01-12",
      "city": "Cedar Falls, IA",
      "venue": "West Gymnasium, University of Northern Iowa",
      "phase": "campaign-2016",
      "type": "rally",
      "source": "https://en.wikipedia.org/wiki/List_of_rallies_for_the_2016_Donald_Trump_presidential_campaign",
      "lat": 42.5361805,
      "lng": -92.447758,
      "label": "West Gymnasium, University of Northern Iowa"
    },
    {
      "date": "2016-01-13",
      "city": "Pensacola, FL",
      "venue": "Pensacola Bay Center",
      "phase": "campaign-2016",
      "type": "rally",
      "source": "https://en.wikipedia.org/wiki/List_of_rallies_for_the_2016_Donald_Trump_presidential_campaign",
      "lat": 30.421309,
      "lng": -87.2169149,
      "label": "Pensacola Bay Center"
    },
    {
      "date": "2016-01-15",
      "city": "Urbandale, IA",
      "venue": "Living History Farms Visitor Center",
      "phase": "campaign-2016",
      "type": "rally",
      "source": "https://en.wikipedia.org/wiki/List_of_rallies_for_the_2016_Donald_Trump_presidential_campaign",
      "lat": 41.6274511,
      "lng": -93.7380243,
      "label": "Living History Farms Visitor Center"
    },
    {
      "date": "2016-01-18",
      "city": "Concord, NH",
      "venue": "Concord High School",
      "phase": "campaign-2016",
      "type": "rally",
      "source": "https://en.wikipedia.org/wiki/List_of_rallies_for_the_2016_Donald_Trump_presidential_campaign",
      "lat": 43.207178,
      "lng": -71.537476,
      "label": "Concord High School"
    },
    {
      "date": "2016-01-18",
      "city": "Lynchburg, VA",
      "venue": "Vines Center, Liberty University",
      "phase": "campaign-2016",
      "type": "rally",
      "source": "https://en.wikipedia.org/wiki/List_of_rallies_for_the_2016_Donald_Trump_presidential_campaign",
      "lat": 37.4137536,
      "lng": -79.1422464,
      "label": "Vines Center, Liberty University"
    },
    {
      "date": "2016-01-19",
      "city": "Ames, IA",
      "venue": "Hansen Agriculture Student Learning Center, Iowa State University",
      "phase": "campaign-2016",
      "type": "rally",
      "source": "https://en.wikipedia.org/wiki/List_of_rallies_for_the_2016_Donald_Trump_presidential_campaign",
      "lat": 42.0267567,
      "lng": -93.6170448,
      "label": "Hansen Agriculture Student Learning Center, Iowa State University"
    },
    {
      "date": "2016-01-20",
      "city": "Norwalk, IA",
      "venue": "The Wright Place",
      "phase": "campaign-2016",
      "type": "rally",
      "source": "https://en.wikipedia.org/wiki/List_of_rallies_for_the_2016_Donald_Trump_presidential_campaign",
      "lat": 41.4755492,
      "lng": -93.6788876,
      "label": "The Wright Place"
    },
    {
      "date": "2016-01-20",
      "city": "Tulsa, OK",
      "venue": "Mabee Center , Oral Roberts University",
      "phase": "campaign-2016",
      "type": "rally",
      "source": "https://en.wikipedia.org/wiki/List_of_rallies_for_the_2016_Donald_Trump_presidential_campaign",
      "lat": 36.1563122,
      "lng": -95.9927516,
      "label": "Mabee Center , Oral Roberts University"
    },
    {
      "date": "2016-01-21",
      "city": "Las Vegas, NV",
      "venue": "South Point Hotel, Casino & Spa",
      "phase": "campaign-2016",
      "type": "rally",
      "source": "https://en.wikipedia.org/wiki/List_of_rallies_for_the_2016_Donald_Trump_presidential_campaign",
      "lat": 36.1674263,
      "lng": -115.1484131,
      "label": "South Point Hotel, Casino & Spa"
    },
    {
      "date": "2016-01-23",
      "city": "Pella, IA",
      "venue": "Douwstra Auditorium, Central College",
      "phase": "campaign-2016",
      "type": "rally",
      "source": "https://en.wikipedia.org/wiki/List_of_rallies_for_the_2016_Donald_Trump_presidential_campaign",
      "lat": 41.4073138,
      "lng": -92.9174074,
      "label": "Douwstra Auditorium, Central College"
    },
    {
      "date": "2016-01-23",
      "city": "Sioux Center, IA",
      "venue": "B. J. Haan Auditorium , Dordt College",
      "phase": "campaign-2016",
      "type": "rally",
      "source": "https://en.wikipedia.org/wiki/List_of_rallies_for_the_2016_Donald_Trump_presidential_campaign",
      "lat": 43.0796879,
      "lng": -96.1756497,
      "label": "B. J. Haan Auditorium , Dordt College"
    },
    {
      "date": "2016-01-24",
      "city": "Muscatine, IA",
      "venue": "Muscatine High School",
      "phase": "campaign-2016",
      "type": "rally",
      "source": "https://en.wikipedia.org/wiki/List_of_rallies_for_the_2016_Donald_Trump_presidential_campaign",
      "lat": 41.4776121,
      "lng": -91.1210053,
      "label": "Muscatine High School"
    },
    {
      "date": "2016-01-25",
      "city": "Farmington, NH",
      "venue": "Farmington Senior High School",
      "phase": "campaign-2016",
      "type": "rally",
      "source": "https://en.wikipedia.org/wiki/List_of_rallies_for_the_2016_Donald_Trump_presidential_campaign",
      "lat": 43.3896356,
      "lng": -71.0649105,
      "label": "Farmington Senior High School"
    },
    {
      "date": "2016-01-26",
      "city": "Iowa City, IA",
      "venue": "Iowa Field House , University of Iowa",
      "phase": "campaign-2016",
      "type": "rally",
      "source": "https://en.wikipedia.org/wiki/List_of_rallies_for_the_2016_Donald_Trump_presidential_campaign",
      "lat": 41.6612561,
      "lng": -91.5299106,
      "label": "Iowa Field House , University of Iowa"
    },
    {
      "date": "2016-01-26",
      "city": "Marshalltown, IA",
      "venue": "Roundhouse Gymnasium, Marshalltown High School",
      "phase": "campaign-2016",
      "type": "rally",
      "source": "https://en.wikipedia.org/wiki/List_of_rallies_for_the_2016_Donald_Trump_presidential_campaign",
      "lat": 42.048881,
      "lng": -92.9122672,
      "label": "Roundhouse Gymnasium, Marshalltown High School"
    },
    {
      "date": "2016-01-27",
      "city": "Gilbert, SC",
      "venue": "The Barn at Harmon's",
      "phase": "campaign-2016",
      "type": "rally",
      "source": "https://en.wikipedia.org/wiki/List_of_rallies_for_the_2016_Donald_Trump_presidential_campaign",
      "lat": 33.9243121,
      "lng": -81.3937132,
      "label": "The Barn at Harmon's"
    },
    {
      "date": "2016-01-28",
      "city": "Des Moines, IA",
      "venue": "Sheslow Auditorium, Drake University",
      "phase": "campaign-2016",
      "type": "rally",
      "source": "https://en.wikipedia.org/wiki/List_of_rallies_for_the_2016_Donald_Trump_presidential_campaign",
      "lat": 41.5868654,
      "lng": -93.6249494,
      "label": "Sheslow Auditorium, Drake University"
    },
    {
      "date": "2016-01-29",
      "city": "Nashua, NH",
      "venue": "Radisson Hotel Nashua",
      "phase": "campaign-2016",
      "type": "rally",
      "source": "https://en.wikipedia.org/wiki/List_of_rallies_for_the_2016_Donald_Trump_presidential_campaign",
      "lat": 42.7656251,
      "lng": -71.4677032,
      "label": "Radisson Hotel Nashua"
    },
    {
      "date": "2016-01-30",
      "city": "Clinton, IA",
      "venue": "Clinton Middle School",
      "phase": "campaign-2016",
      "type": "rally",
      "source": "https://en.wikipedia.org/wiki/List_of_rallies_for_the_2016_Donald_Trump_presidential_campaign",
      "lat": 41.9054695,
      "lng": -90.5599971,
      "label": "Clinton Middle School"
    },
    {
      "date": "2016-01-30",
      "city": "Davenport, IA",
      "venue": "Adler Theatre",
      "phase": "campaign-2016",
      "type": "rally",
      "source": "https://en.wikipedia.org/wiki/List_of_rallies_for_the_2016_Donald_Trump_presidential_campaign",
      "lat": 41.5235808,
      "lng": -90.5770967,
      "label": "Adler Theatre"
    },
    {
      "date": "2016-01-30",
      "city": "Dubuque, IA",
      "venue": "Dubuque Regional Airport",
      "phase": "campaign-2016",
      "type": "rally",
      "source": "https://en.wikipedia.org/wiki/List_of_rallies_for_the_2016_Donald_Trump_presidential_campaign",
      "lat": 42.5006243,
      "lng": -90.6647985,
      "label": "Dubuque Regional Airport"
    },
    {
      "date": "2016-01-31",
      "city": "Council Bluffs, IA",
      "venue": "Gerald W. Kirn Middle School",
      "phase": "campaign-2016",
      "type": "rally",
      "source": "https://en.wikipedia.org/wiki/List_of_rallies_for_the_2016_Donald_Trump_presidential_campaign",
      "lat": 41.258841,
      "lng": -95.8519484,
      "label": "Gerald W. Kirn Middle School"
    },
    {
      "date": "2016-02-01",
      "city": "Cedar Rapids, IA",
      "venue": "DoubleTree Hotel Cedar Rapids Convention Complex",
      "phase": "campaign-2016",
      "type": "rally",
      "source": "https://en.wikipedia.org/wiki/List_of_rallies_for_the_2016_Donald_Trump_presidential_campaign",
      "lat": 41.9758872,
      "lng": -91.6704053,
      "label": "DoubleTree Hotel Cedar Rapids Convention Complex"
    },
    {
      "date": "2016-02-01",
      "city": "Waterloo, IA",
      "venue": "Ramada Waterloo Hotel and Convention Center",
      "phase": "campaign-2016",
      "type": "rally",
      "source": "https://en.wikipedia.org/wiki/List_of_rallies_for_the_2016_Donald_Trump_presidential_campaign",
      "lat": 42.498275,
      "lng": -92.3328743,
      "label": "Ramada Waterloo Hotel and Convention Center"
    },
    {
      "date": "2016-02-02",
      "city": "Milford, NH",
      "venue": "Hampshire Hills Athletic Club",
      "phase": "campaign-2016",
      "type": "rally",
      "source": "https://en.wikipedia.org/wiki/List_of_rallies_for_the_2016_Donald_Trump_presidential_campaign",
      "lat": 42.8355775,
      "lng": -71.6495345,
      "label": "Hampshire Hills Athletic Club"
    },
    {
      "date": "2016-02-03",
      "city": "Little Rock, AR",
      "venue": "Barton Coliseum",
      "phase": "campaign-2016",
      "type": "rally",
      "source": "https://en.wikipedia.org/wiki/List_of_rallies_for_the_2016_Donald_Trump_presidential_campaign",
      "lat": 34.7465071,
      "lng": -92.2896267,
      "label": "Barton Coliseum"
    },
    {
      "date": "2016-02-04",
      "city": "Exeter, NH",
      "venue": "Exeter Town Hall",
      "phase": "campaign-2016",
      "type": "rally",
      "source": "https://en.wikipedia.org/wiki/List_of_rallies_for_the_2016_Donald_Trump_presidential_campaign",
      "lat": 42.981477,
      "lng": -70.9478343,
      "label": "Exeter Town Hall"
    },
    {
      "date": "2016-02-04",
      "city": "Portsmouth, NH",
      "venue": "Great Bay Community College",
      "phase": "campaign-2016",
      "type": "rally",
      "source": "https://en.wikipedia.org/wiki/List_of_rallies_for_the_2016_Donald_Trump_presidential_campaign",
      "lat": 43.0751306,
      "lng": -70.7601826,
      "label": "Great Bay Community College"
    },
    {
      "date": "2016-02-05",
      "city": "Florence, SC",
      "venue": "Florence Civic Center",
      "phase": "campaign-2016",
      "type": "rally",
      "source": "https://en.wikipedia.org/wiki/List_of_rallies_for_the_2016_Donald_Trump_presidential_campaign",
      "lat": 34.1984435,
      "lng": -79.7671658,
      "label": "Florence Civic Center"
    },
    {
      "date": "2016-02-07",
      "city": "Holderness, NH",
      "venue": "ALLWell North, Plymouth State University",
      "phase": "campaign-2016",
      "type": "rally",
      "source": "https://en.wikipedia.org/wiki/List_of_rallies_for_the_2016_Donald_Trump_presidential_campaign",
      "lat": 43.732406,
      "lng": -71.588974,
      "label": "ALLWell North, Plymouth State University"
    },
    {
      "date": "2016-02-08",
      "city": "Londonderry, NH",
      "venue": "Londonderry Lions Club",
      "phase": "campaign-2016",
      "type": "rally",
      "source": "https://en.wikipedia.org/wiki/List_of_rallies_for_the_2016_Donald_Trump_presidential_campaign",
      "lat": 42.8650869,
      "lng": -71.3739532,
      "label": "Londonderry Lions Club"
    },
    {
      "date": "2016-02-08",
      "city": "Manchester, NH",
      "venue": "Verizon Wireless Arena",
      "phase": "campaign-2016",
      "type": "rally",
      "source": "https://en.wikipedia.org/wiki/List_of_rallies_for_the_2016_Donald_Trump_presidential_campaign",
      "lat": 42.9956397,
      "lng": -71.4547891,
      "label": "Verizon Wireless Arena"
    },
    {
      "date": "2016-02-08",
      "city": "Salem, NH",
      "venue": "Derry-Salem Elks Lodge",
      "phase": "campaign-2016",
      "type": "rally",
      "source": "https://en.wikipedia.org/wiki/List_of_rallies_for_the_2016_Donald_Trump_presidential_campaign",
      "lat": 42.7884957,
      "lng": -71.2009035,
      "label": "Derry-Salem Elks Lodge"
    },
    {
      "date": "2016-02-10",
      "city": "Pendleton, SC",
      "venue": "T. Ed Garrison Arena, Clemson University",
      "phase": "campaign-2016",
      "type": "rally",
      "source": "https://en.wikipedia.org/wiki/List_of_rallies_for_the_2016_Donald_Trump_presidential_campaign",
      "lat": 34.6508092,
      "lng": -82.7820663,
      "label": "T. Ed Garrison Arena, Clemson University"
    },
    {
      "date": "2016-02-11",
      "city": "Baton Rouge, LA",
      "venue": "Baton Rouge River Center",
      "phase": "campaign-2016",
      "type": "rally",
      "source": "https://en.wikipedia.org/wiki/List_of_rallies_for_the_2016_Donald_Trump_presidential_campaign",
      "lat": 30.4494155,
      "lng": -91.1869659,
      "label": "Baton Rouge River Center"
    },
    {
      "date": "2016-02-12",
      "city": "Tampa, FL",
      "venue": "USF Sun Dome , University of South Florida",
      "phase": "campaign-2016",
      "type": "rally",
      "source": "https://en.wikipedia.org/wiki/List_of_rallies_for_the_2016_Donald_Trump_presidential_campaign",
      "lat": 27.9449854,
      "lng": -82.4583107,
      "label": "USF Sun Dome , University of South Florida"
    },
    {
      "date": "2016-02-15",
      "city": "Greenville, SC",
      "venue": "TD Convention Center",
      "phase": "campaign-2016",
      "type": "rally",
      "source": "https://en.wikipedia.org/wiki/List_of_rallies_for_the_2016_Donald_Trump_presidential_campaign",
      "lat": 34.851354,
      "lng": -82.3984882,
      "label": "TD Convention Center"
    },
    {
      "date": "2016-02-16",
      "city": "Beaufort, SC",
      "venue": "Beaufort High School Performing Arts Center",
      "phase": "campaign-2016",
      "type": "rally",
      "source": "https://en.wikipedia.org/wiki/List_of_rallies_for_the_2016_Donald_Trump_presidential_campaign",
      "lat": 32.3850708,
      "lng": -80.6923169,
      "label": "Beaufort High School Performing Arts Center"
    },
    {
      "date": "2016-02-17",
      "city": "Sumter, SC",
      "venue": "Sumter County Civic Center",
      "phase": "campaign-2016",
      "type": "rally",
      "source": "https://en.wikipedia.org/wiki/List_of_rallies_for_the_2016_Donald_Trump_presidential_campaign",
      "lat": 33.9204354,
      "lng": -80.3414693,
      "label": "Sumter County Civic Center"
    },
    {
      "date": "2016-02-18",
      "city": "Gaffney, SC",
      "venue": "Broad River Electric Cooperative",
      "phase": "campaign-2016",
      "type": "rally",
      "source": "https://en.wikipedia.org/wiki/List_of_rallies_for_the_2016_Donald_Trump_presidential_campaign",
      "lat": 35.0717945,
      "lng": -81.6498195,
      "label": "Broad River Electric Cooperative"
    },
    {
      "date": "2016-02-19",
      "city": "North Charleston, SC",
      "venue": "North Charleston Convention Center",
      "phase": "campaign-2016",
      "type": "rally",
      "source": "https://en.wikipedia.org/wiki/List_of_rallies_for_the_2016_Donald_Trump_presidential_campaign",
      "lat": 32.8546197,
      "lng": -79.9748103,
      "label": "North Charleston Convention Center"
    },
    {
      "date": "2016-02-21",
      "city": "Atlanta, GA",
      "venue": "Georgia World Congress Center",
      "phase": "campaign-2016",
      "type": "rally",
      "source": "https://en.wikipedia.org/wiki/List_of_rallies_for_the_2016_Donald_Trump_presidential_campaign",
      "lat": 33.7544657,
      "lng": -84.3898151,
      "label": "Georgia World Congress Center"
    },
    {
      "date": "2016-02-22",
      "city": "Las Vegas, NV",
      "venue": "South Point Hotel, Casino & Spa",
      "phase": "campaign-2016",
      "type": "rally",
      "source": "https://en.wikipedia.org/wiki/List_of_rallies_for_the_2016_Donald_Trump_presidential_campaign",
      "lat": 36.1674263,
      "lng": -115.1484131,
      "label": "South Point Hotel, Casino & Spa"
    },
    {
      "date": "2016-02-23",
      "city": "Sparks, NV",
      "venue": "Rose Ballroom",
      "phase": "campaign-2016",
      "type": "rally",
      "source": "https://en.wikipedia.org/wiki/List_of_rallies_for_the_2016_Donald_Trump_presidential_campaign",
      "lat": 39.5404679,
      "lng": -119.7487235,
      "label": "Rose Ballroom"
    },
    {
      "date": "2016-02-26",
      "city": "Fort Worth, TX",
      "venue": "Fort Worth Convention Center",
      "phase": "campaign-2016",
      "type": "rally",
      "source": "https://en.wikipedia.org/wiki/List_of_rallies_for_the_2016_Donald_Trump_presidential_campaign",
      "lat": 32.753177,
      "lng": -97.3327459,
      "label": "Fort Worth Convention Center"
    },
    {
      "date": "2016-02-26",
      "city": "Oklahoma City, OK",
      "venue": "Cox Convention Center",
      "phase": "campaign-2016",
      "type": "rally",
      "source": "https://en.wikipedia.org/wiki/List_of_rallies_for_the_2016_Donald_Trump_presidential_campaign",
      "lat": 35.4729886,
      "lng": -97.5170536,
      "label": "Cox Convention Center"
    },
    {
      "date": "2016-02-27",
      "city": "Highfill, AR",
      "venue": "Northwest Arkansas Regional Airport",
      "phase": "campaign-2016",
      "type": "rally",
      "source": "https://en.wikipedia.org/wiki/List_of_rallies_for_the_2016_Donald_Trump_presidential_campaign",
      "lat": 36.2613983,
      "lng": -94.3574694,
      "label": "Northwest Arkansas Regional Airport"
    },
    {
      "date": "2016-02-27",
      "city": "Millington, TN",
      "venue": "Millington Regional Jetport",
      "phase": "campaign-2016",
      "type": "rally",
      "source": "https://en.wikipedia.org/wiki/List_of_rallies_for_the_2016_Donald_Trump_presidential_campaign",
      "lat": 35.3414745,
      "lng": -89.8973084,
      "label": "Millington Regional Jetport"
    },
    {
      "date": "2016-02-28",
      "city": "Madison, AL",
      "venue": "Madison City Schools Stadium",
      "phase": "campaign-2016",
      "type": "rally",
      "source": "https://en.wikipedia.org/wiki/List_of_rallies_for_the_2016_Donald_Trump_presidential_campaign",
      "lat": 34.7736807,
      "lng": -86.5675095,
      "label": "Madison City Schools Stadium"
    },
    {
      "date": "2016-02-29",
      "city": "Radford, VA",
      "venue": "Dedmon Center , Radford University",
      "phase": "campaign-2016",
      "type": "rally",
      "source": "https://en.wikipedia.org/wiki/List_of_rallies_for_the_2016_Donald_Trump_presidential_campaign",
      "lat": 37.1343148,
      "lng": -80.5749169,
      "label": "Dedmon Center , Radford University"
    },
    {
      "date": "2016-02-29",
      "city": "Valdosta, GA",
      "venue": "The Complex , Valdosta State University",
      "phase": "campaign-2016",
      "type": "rally",
      "source": "https://en.wikipedia.org/wiki/List_of_rallies_for_the_2016_Donald_Trump_presidential_campaign",
      "lat": 30.8327022,
      "lng": -83.2784851,
      "label": "The Complex , Valdosta State University"
    },
    {
      "date": "2016-03-01",
      "city": "Columbus, OH",
      "venue": "Port Columbus International Airport",
      "phase": "campaign-2016",
      "type": "rally",
      "source": "https://en.wikipedia.org/wiki/List_of_rallies_for_the_2016_Donald_Trump_presidential_campaign",
      "lat": 39.9622601,
      "lng": -83.0007065,
      "label": "Port Columbus International Airport"
    },
    {
      "date": "2016-03-01",
      "city": "Louisville, KY",
      "venue": "Kentucky International Convention Center",
      "phase": "campaign-2016",
      "type": "rally",
      "source": "https://en.wikipedia.org/wiki/List_of_rallies_for_the_2016_Donald_Trump_presidential_campaign",
      "lat": 38.2542376,
      "lng": -85.759407,
      "label": "Kentucky International Convention Center"
    },
    {
      "date": "2016-03-03",
      "city": "Portland, ME",
      "venue": "The Westin Portland Harborview Hotel",
      "phase": "campaign-2016",
      "type": "rally",
      "source": "https://en.wikipedia.org/wiki/List_of_rallies_for_the_2016_Donald_Trump_presidential_campaign",
      "lat": 43.6573605,
      "lng": -70.2586618,
      "label": "The Westin Portland Harborview Hotel"
    },
    {
      "date": "2016-03-04",
      "city": "Warren, MI",
      "venue": "Sports & Expo Center, Macomb Community College",
      "phase": "campaign-2016",
      "type": "rally",
      "source": "https://en.wikipedia.org/wiki/List_of_rallies_for_the_2016_Donald_Trump_presidential_campaign",
      "lat": 42.4932575,
      "lng": -83.0062746,
      "label": "Sports & Expo Center, Macomb Community College"
    },
    {
      "date": "2016-03-04",
      "city": "Cadillac, MI",
      "venue": "Wexford County Civic Center",
      "phase": "campaign-2016",
      "type": "rally",
      "source": "https://en.wikipedia.org/wiki/List_of_rallies_for_the_2016_Donald_Trump_presidential_campaign",
      "lat": 44.2519526,
      "lng": -85.4011619,
      "label": "Wexford County Civic Center"
    },
    {
      "date": "2016-03-04",
      "city": "New Orleans, LA",
      "venue": "Lakefront Airport",
      "phase": "campaign-2016",
      "type": "rally",
      "source": "https://en.wikipedia.org/wiki/List_of_rallies_for_the_2016_Donald_Trump_presidential_campaign",
      "lat": 29.9561422,
      "lng": -90.0733934,
      "label": "Lakefront Airport"
    },
    {
      "date": "2016-03-05",
      "city": "Orlando, FL",
      "venue": "CFE Arena , University of Central Florida",
      "phase": "campaign-2016",
      "type": "rally",
      "source": "https://en.wikipedia.org/wiki/List_of_rallies_for_the_2016_Donald_Trump_presidential_campaign",
      "lat": 28.5421218,
      "lng": -81.379045,
      "label": "CFE Arena , University of Central Florida"
    },
    {
      "date": "2016-03-05",
      "city": "Wichita, KS",
      "venue": "Century II Performing Arts & Convention Center",
      "phase": "campaign-2016",
      "type": "rally",
      "source": "https://en.wikipedia.org/wiki/List_of_rallies_for_the_2016_Donald_Trump_presidential_campaign",
      "lat": 37.6922361,
      "lng": -97.3375448,
      "label": "Century II Performing Arts & Convention Center"
    },
    {
      "date": "2016-03-07",
      "city": "Concord, NC",
      "venue": "Cabarrus Arena & Events Center",
      "phase": "campaign-2016",
      "type": "rally",
      "source": "https://en.wikipedia.org/wiki/List_of_rallies_for_the_2016_Donald_Trump_presidential_campaign",
      "lat": 35.4094178,
      "lng": -80.5800049,
      "label": "Cabarrus Arena & Events Center"
    },
    {
      "date": "2016-03-07",
      "city": "Madison, MS",
      "venue": "Madison Central High School",
      "phase": "campaign-2016",
      "type": "rally",
      "source": "https://en.wikipedia.org/wiki/List_of_rallies_for_the_2016_Donald_Trump_presidential_campaign",
      "lat": 32.6308318,
      "lng": -90.0040817,
      "label": "Madison Central High School"
    },
    {
      "date": "2016-03-09",
      "city": "Fayetteville, NC",
      "venue": "Crown Coliseum",
      "phase": "campaign-2016",
      "type": "rally",
      "source": "https://en.wikipedia.org/wiki/List_of_rallies_for_the_2016_Donald_Trump_presidential_campaign",
      "lat": 35.0525759,
      "lng": -78.878292,
      "label": "Crown Coliseum"
    },
    {
      "date": "2016-03-11",
      "city": "St. Louis, MO",
      "venue": "Peabody Opera House",
      "phase": "campaign-2016",
      "type": "rally",
      "source": "https://en.wikipedia.org/wiki/List_of_rallies_for_the_2016_Donald_Trump_presidential_campaign",
      "lat": 38.6254063,
      "lng": -90.190009,
      "label": "Peabody Opera House"
    },
    {
      "date": "2016-03-12",
      "city": "Cleveland, OH",
      "venue": "I-X Center",
      "phase": "campaign-2016",
      "type": "rally",
      "source": "https://en.wikipedia.org/wiki/List_of_rallies_for_the_2016_Donald_Trump_presidential_campaign",
      "lat": 41.4996574,
      "lng": -81.6936772,
      "label": "I-X Center"
    },
    {
      "date": "2016-03-12",
      "city": "Dayton, OH",
      "venue": "Dayton International Airport",
      "phase": "campaign-2016",
      "type": "rally",
      "source": "https://en.wikipedia.org/wiki/List_of_rallies_for_the_2016_Donald_Trump_presidential_campaign",
      "lat": 39.7589478,
      "lng": -84.1916069,
      "label": "Dayton International Airport"
    },
    {
      "date": "2016-03-12",
      "city": "Kansas City, MO",
      "venue": "Midland Theatre",
      "phase": "campaign-2016",
      "type": "rally",
      "source": "https://en.wikipedia.org/wiki/List_of_rallies_for_the_2016_Donald_Trump_presidential_campaign",
      "lat": 39.100105,
      "lng": -94.5781416,
      "label": "Midland Theatre"
    },
    {
      "date": "2016-03-13",
      "city": "Bloomington, IL",
      "venue": "Synergy Flight Center, Central Illinois Regional Airport",
      "phase": "campaign-2016",
      "type": "rally",
      "source": "https://en.wikipedia.org/wiki/List_of_rallies_for_the_2016_Donald_Trump_presidential_campaign",
      "lat": 40.4797828,
      "lng": -88.9939147,
      "label": "Synergy Flight Center, Central Illinois Regional Airport"
    },
    {
      "date": "2016-03-13",
      "city": "Boca Raton, FL",
      "venue": "Sunset Cove Amphitheater, Sugar Sand Park",
      "phase": "campaign-2016",
      "type": "rally",
      "source": "https://en.wikipedia.org/wiki/List_of_rallies_for_the_2016_Donald_Trump_presidential_campaign",
      "lat": 26.3586885,
      "lng": -80.0830984,
      "label": "Sunset Cove Amphitheater, Sugar Sand Park"
    },
    {
      "date": "2016-03-14",
      "city": "Tampa, FL",
      "venue": "Tampa Convention Center",
      "phase": "campaign-2016",
      "type": "rally",
      "source": "https://en.wikipedia.org/wiki/List_of_rallies_for_the_2016_Donald_Trump_presidential_campaign",
      "lat": 27.9449854,
      "lng": -82.4583107,
      "label": "Tampa Convention Center"
    },
    {
      "date": "2016-03-14",
      "city": "Vienna, OH",
      "venue": "Winner Aviation, Youngstown\u2013Warren Regional Airport",
      "phase": "campaign-2016",
      "type": "rally",
      "source": "https://en.wikipedia.org/wiki/List_of_rallies_for_the_2016_Donald_Trump_presidential_campaign",
      "lat": 41.2378167,
      "lng": -80.6638925,
      "label": "Winner Aviation, Youngstown\u2013Warren Regional Airport"
    },
    {
      "date": "2016-03-18",
      "city": "Salt Lake City, UT",
      "venue": "Infinity Event Center",
      "phase": "campaign-2016",
      "type": "rally",
      "source": "https://en.wikipedia.org/wiki/List_of_rallies_for_the_2016_Donald_Trump_presidential_campaign",
      "lat": 40.7596198,
      "lng": -111.886797,
      "label": "Infinity Event Center"
    },
    {
      "date": "2016-03-19",
      "city": "Fountain Hills, AZ",
      "venue": "Fountain Park",
      "phase": "campaign-2016",
      "type": "rally",
      "source": "https://en.wikipedia.org/wiki/List_of_rallies_for_the_2016_Donald_Trump_presidential_campaign",
      "lat": 33.6117105,
      "lng": -111.717361,
      "label": "Fountain Park"
    },
    {
      "date": "2016-03-19",
      "city": "Tucson, AZ",
      "venue": "Tucson Convention Center",
      "phase": "campaign-2016",
      "type": "rally",
      "source": "https://en.wikipedia.org/wiki/List_of_rallies_for_the_2016_Donald_Trump_presidential_campaign",
      "lat": 32.2228765,
      "lng": -110.974847,
      "label": "Tucson Convention Center"
    },
    {
      "date": "2016-03-29",
      "city": "Janesville, WI",
      "venue": "Janesville Conference Center",
      "phase": "campaign-2016",
      "type": "rally",
      "source": "https://en.wikipedia.org/wiki/List_of_rallies_for_the_2016_Donald_Trump_presidential_campaign",
      "lat": 42.6829765,
      "lng": -89.0226793,
      "label": "Janesville Conference Center"
    },
    {
      "date": "2016-03-30",
      "city": "Appleton, WI",
      "venue": "Radisson Paper Valley Hotel",
      "phase": "campaign-2016",
      "type": "rally",
      "source": "https://en.wikipedia.org/wiki/List_of_rallies_for_the_2016_Donald_Trump_presidential_campaign",
      "lat": 44.2613967,
      "lng": -88.4069744,
      "label": "Radisson Paper Valley Hotel"
    },
    {
      "date": "2016-03-30",
      "city": "De Pere, WI",
      "venue": "Byron L. Walter Theatre, St. Norbert College",
      "phase": "campaign-2016",
      "type": "rally",
      "source": "https://en.wikipedia.org/wiki/List_of_rallies_for_the_2016_Donald_Trump_presidential_campaign",
      "lat": 44.4493584,
      "lng": -88.0599986,
      "label": "Byron L. Walter Theatre, St. Norbert College"
    },
    {
      "date": "2016-04-02",
      "city": "Eau Claire, WI",
      "venue": "Memorial High School",
      "phase": "campaign-2016",
      "type": "rally",
      "source": "https://en.wikipedia.org/wiki/List_of_rallies_for_the_2016_Donald_Trump_presidential_campaign",
      "lat": 44.811349,
      "lng": -91.4984941,
      "label": "Memorial High School"
    },
    {
      "date": "2016-04-02",
      "city": "Racine, WI",
      "venue": "Memorial Hall",
      "phase": "campaign-2016",
      "type": "rally",
      "source": "https://en.wikipedia.org/wiki/List_of_rallies_for_the_2016_Donald_Trump_presidential_campaign",
      "lat": 42.7313756,
      "lng": -87.7834769,
      "label": "Memorial Hall"
    },
    {
      "date": "2016-04-02",
      "city": "Rothschild, WI",
      "venue": "Central Wisconsin Convention & Expo Center",
      "phase": "campaign-2016",
      "type": "rally",
      "source": "https://en.wikipedia.org/wiki/List_of_rallies_for_the_2016_Donald_Trump_presidential_campaign",
      "lat": 44.8871907,
      "lng": -89.6201218,
      "label": "Central Wisconsin Convention & Expo Center"
    },
    {
      "date": "2016-04-03",
      "city": "West Allis, WI",
      "venue": "Nathan Hale High School",
      "phase": "campaign-2016",
      "type": "rally",
      "source": "https://en.wikipedia.org/wiki/List_of_rallies_for_the_2016_Donald_Trump_presidential_campaign",
      "lat": 43.0166806,
      "lng": -88.0070315,
      "label": "Nathan Hale High School"
    },
    {
      "date": "2016-04-04",
      "city": "La Crosse, WI",
      "venue": "La Crosse Center",
      "phase": "campaign-2016",
      "type": "rally",
      "source": "https://en.wikipedia.org/wiki/List_of_rallies_for_the_2016_Donald_Trump_presidential_campaign",
      "lat": 43.8122836,
      "lng": -91.2514355,
      "label": "La Crosse Center"
    },
    {
      "date": "2016-04-04",
      "city": "Milwaukee, WI",
      "venue": "Milwaukee Theatre",
      "phase": "campaign-2016",
      "type": "rally",
      "source": "https://en.wikipedia.org/wiki/List_of_rallies_for_the_2016_Donald_Trump_presidential_campaign",
      "lat": 43.0386475,
      "lng": -87.9090751,
      "label": "Milwaukee Theatre"
    },
    {
      "date": "2016-04-04",
      "city": "Superior, WI",
      "venue": "Richard I. Bong Airport",
      "phase": "campaign-2016",
      "type": "rally",
      "source": "https://en.wikipedia.org/wiki/List_of_rallies_for_the_2016_Donald_Trump_presidential_campaign",
      "lat": 46.7207737,
      "lng": -92.1040796,
      "label": "Richard I. Bong Airport"
    },
    {
      "date": "2016-04-06",
      "city": "Bethpage, NY",
      "venue": "Grumman Studios",
      "phase": "campaign-2016",
      "type": "rally",
      "source": "https://en.wikipedia.org/wiki/List_of_rallies_for_the_2016_Donald_Trump_presidential_campaign",
      "lat": 40.750482,
      "lng": -73.489201,
      "label": "Grumman Studios"
    },
    {
      "date": "2016-04-10",
      "city": "Rochester, NY",
      "venue": "JetSmart Aviation Services, Greater Rochester International Airport",
      "phase": "campaign-2016",
      "type": "rally",
      "source": "https://en.wikipedia.org/wiki/List_of_rallies_for_the_2016_Donald_Trump_presidential_campaign",
      "lat": 43.157285,
      "lng": -77.615214,
      "label": "JetSmart Aviation Services, Greater Rochester International Airport"
    },
    {
      "date": "2016-04-11",
      "city": "Albany, NY",
      "venue": "Times Union Center",
      "phase": "campaign-2016",
      "type": "rally",
      "source": "https://en.wikipedia.org/wiki/List_of_rallies_for_the_2016_Donald_Trump_presidential_campaign",
      "lat": 42.6511674,
      "lng": -73.754968,
      "label": "Times Union Center"
    },
    {
      "date": "2016-04-12",
      "city": "Rome, NY",
      "venue": "Griffiss International Airport",
      "phase": "campaign-2016",
      "type": "rally",
      "source": "https://en.wikipedia.org/wiki/List_of_rallies_for_the_2016_Donald_Trump_presidential_campaign",
      "lat": 43.2102196,
      "lng": -75.4583956,
      "label": "Griffiss International Airport"
    },
    {
      "date": "2016-04-13",
      "city": "Pittsburgh, PA",
      "venue": "David L. Lawrence Convention Center",
      "phase": "campaign-2016",
      "type": "rally",
      "source": "https://en.wikipedia.org/wiki/List_of_rallies_for_the_2016_Donald_Trump_presidential_campaign",
      "lat": 40.4406968,
      "lng": -80.0025666,
      "label": "David L. Lawrence Convention Center"
    },
    {
      "date": "2016-04-15",
      "city": "Hartford, CT",
      "venue": "Connecticut Convention Center",
      "phase": "campaign-2016",
      "type": "rally",
      "source": "https://en.wikipedia.org/wiki/List_of_rallies_for_the_2016_Donald_Trump_presidential_campaign",
      "lat": 41.764582,
      "lng": -72.6908547,
      "label": "Connecticut Convention Center"
    },
    {
      "date": "2016-04-15",
      "city": "Plattsburgh, NY",
      "venue": "Crete Civic Center",
      "phase": "campaign-2016",
      "type": "rally",
      "source": "https://en.wikipedia.org/wiki/List_of_rallies_for_the_2016_Donald_Trump_presidential_campaign",
      "lat": 44.6960855,
      "lng": -73.4542915,
      "label": "Crete Civic Center"
    },
    {
      "date": "2016-04-16",
      "city": "Syracuse, NY",
      "venue": "Nicholas J. Pirro Convention Center , Oncenter",
      "phase": "campaign-2016",
      "type": "rally",
      "source": "https://en.wikipedia.org/wiki/List_of_rallies_for_the_2016_Donald_Trump_presidential_campaign",
      "lat": 43.0481221,
      "lng": -76.1474244,
      "label": "Nicholas J. Pirro Convention Center , Oncenter"
    },
    {
      "date": "2016-04-16",
      "city": "Watertown, NY",
      "venue": "Watertown International Airport",
      "phase": "campaign-2016",
      "type": "rally",
      "source": "https://en.wikipedia.org/wiki/List_of_rallies_for_the_2016_Donald_Trump_presidential_campaign",
      "lat": 43.9747838,
      "lng": -75.9107565,
      "label": "Watertown International Airport"
    },
    {
      "date": "2016-04-17",
      "city": "Poughkeepsie, NY",
      "venue": "Mid-Hudson Civic Center",
      "phase": "campaign-2016",
      "type": "rally",
      "source": "https://en.wikipedia.org/wiki/List_of_rallies_for_the_2016_Donald_Trump_presidential_campaign",
      "lat": 41.7065539,
      "lng": -73.9283672,
      "label": "Mid-Hudson Civic Center"
    },
    {
      "date": "2016-04-18",
      "city": "Buffalo, NY",
      "venue": "First Niagara Center",
      "phase": "campaign-2016",
      "type": "rally",
      "source": "https://en.wikipedia.org/wiki/List_of_rallies_for_the_2016_Donald_Trump_presidential_campaign",
      "lat": 42.8864163,
      "lng": -78.8781493,
      "label": "First Niagara Center"
    },
    {
      "date": "2016-04-20",
      "city": "Indianapolis, IN",
      "venue": "Elements Financial Blue Ribbon Pavilion, Indiana State Fairgrounds",
      "phase": "campaign-2016",
      "type": "rally",
      "source": "https://en.wikipedia.org/wiki/List_of_rallies_for_the_2016_Donald_Trump_presidential_campaign",
      "lat": 39.7683331,
      "lng": -86.1583502,
      "label": "Elements Financial Blue Ribbon Pavilion, Indiana State Fairgrounds"
    },
    {
      "date": "2016-04-20",
      "city": "Berlin, MD",
      "venue": "Stephen Decatur High School",
      "phase": "campaign-2016",
      "type": "rally",
      "source": "https://en.wikipedia.org/wiki/List_of_rallies_for_the_2016_Donald_Trump_presidential_campaign",
      "lat": 38.324505,
      "lng": -75.2188589,
      "label": "Stephen Decatur High School"
    },
    {
      "date": "2016-04-21",
      "city": "Harrisburg, PA",
      "venue": "Pennsylvania Farm Show Complex & Expo Center",
      "phase": "campaign-2016",
      "type": "rally",
      "source": "https://en.wikipedia.org/wiki/List_of_rallies_for_the_2016_Donald_Trump_presidential_campaign",
      "lat": 40.2663107,
      "lng": -76.8861122,
      "label": "Pennsylvania Farm Show Complex & Expo Center"
    },
    {
      "date": "2016-04-22",
      "city": "Harrington, DE",
      "venue": "Quillen Arena, Delaware State Fairgrounds",
      "phase": "campaign-2016",
      "type": "rally",
      "source": "https://en.wikipedia.org/wiki/List_of_rallies_for_the_2016_Donald_Trump_presidential_campaign",
      "lat": 38.9237244,
      "lng": -75.5777033,
      "label": "Quillen Arena, Delaware State Fairgrounds"
    },
    {
      "date": "2016-04-23",
      "city": "Bridgeport, CT",
      "venue": "Klein Memorial Auditorium",
      "phase": "campaign-2016",
      "type": "rally",
      "source": "https://en.wikipedia.org/wiki/List_of_rallies_for_the_2016_Donald_Trump_presidential_campaign",
      "lat": 41.1792695,
      "lng": -73.1887863,
      "label": "Klein Memorial Auditorium"
    },
    {
      "date": "2016-04-23",
      "city": "Waterbury, CT",
      "venue": "Crosby High School",
      "phase": "campaign-2016",
      "type": "rally",
      "source": "https://en.wikipedia.org/wiki/List_of_rallies_for_the_2016_Donald_Trump_presidential_campaign",
      "lat": 41.5538091,
      "lng": -73.0438362,
      "label": "Crosby High School"
    },
    {
      "date": "2016-04-24",
      "city": "Hagerstown, MD",
      "venue": "Rider Jet Center, Hagerstown Regional Airport",
      "phase": "campaign-2016",
      "type": "rally",
      "source": "https://en.wikipedia.org/wiki/List_of_rallies_for_the_2016_Donald_Trump_presidential_campaign",
      "lat": 39.6430455,
      "lng": -77.7191081,
      "label": "Rider Jet Center, Hagerstown Regional Airport"
    },
    {
      "date": "2016-04-25",
      "city": "Warwick, RI",
      "venue": "Crowne Plaza Hotel Providence-Warwick",
      "phase": "campaign-2016",
      "type": "rally",
      "source": "https://en.wikipedia.org/wiki/List_of_rallies_for_the_2016_Donald_Trump_presidential_campaign",
      "lat": 41.6992717,
      "lng": -71.4586114,
      "label": "Crowne Plaza Hotel Providence-Warwick"
    },
    {
      "date": "2016-04-25",
      "city": "West Chester, PA",
      "venue": "West Chester University",
      "phase": "campaign-2016",
      "type": "rally",
      "source": "https://en.wikipedia.org/wiki/List_of_rallies_for_the_2016_Donald_Trump_presidential_campaign",
      "lat": 39.9597389,
      "lng": -75.6044609,
      "label": "West Chester University"
    },
    {
      "date": "2016-04-25",
      "city": "Wilkes-Barre, PA",
      "venue": "Mohegan Sun Arena at Casey Plaza",
      "phase": "campaign-2016",
      "type": "rally",
      "source": "https://en.wikipedia.org/wiki/List_of_rallies_for_the_2016_Donald_Trump_presidential_campaign",
      "lat": 41.2464824,
      "lng": -75.8817316,
      "label": "Mohegan Sun Arena at Casey Plaza"
    },
    {
      "date": "2016-04-27",
      "city": "Indianapolis, IN",
      "venue": "Indiana Farmers Coliseum",
      "phase": "campaign-2016",
      "type": "rally",
      "source": "https://en.wikipedia.org/wiki/List_of_rallies_for_the_2016_Donald_Trump_presidential_campaign",
      "lat": 39.7683331,
      "lng": -86.1583502,
      "label": "Indiana Farmers Coliseum"
    },
    {
      "date": "2016-04-28",
      "city": "Costa Mesa, CA",
      "venue": "Pacific Amphitheatre , OC Fair & Event Center",
      "phase": "campaign-2016",
      "type": "rally",
      "source": "https://en.wikipedia.org/wiki/List_of_rallies_for_the_2016_Donald_Trump_presidential_campaign",
      "lat": 33.6633386,
      "lng": -117.903317,
      "label": "Pacific Amphitheatre , OC Fair & Event Center"
    },
    {
      "date": "2016-04-28",
      "city": "Evansville, IN",
      "venue": "Old National Events Plaza",
      "phase": "campaign-2016",
      "type": "rally",
      "source": "https://en.wikipedia.org/wiki/List_of_rallies_for_the_2016_Donald_Trump_presidential_campaign",
      "lat": 37.970495,
      "lng": -87.5715641,
      "label": "Old National Events Plaza"
    },
    {
      "date": "2016-05-01",
      "city": "Fort Wayne, IN",
      "venue": "Allen County War Memorial Coliseum",
      "phase": "campaign-2016",
      "type": "rally",
      "source": "https://en.wikipedia.org/wiki/List_of_rallies_for_the_2016_Donald_Trump_presidential_campaign",
      "lat": 41.0799898,
      "lng": -85.1386015,
      "label": "Allen County War Memorial Coliseum"
    },
    {
      "date": "2016-05-01",
      "city": "Terre Haute, IN",
      "venue": "Indiana Theatre",
      "phase": "campaign-2016",
      "type": "rally",
      "source": "https://en.wikipedia.org/wiki/List_of_rallies_for_the_2016_Donald_Trump_presidential_campaign",
      "lat": 39.4667025,
      "lng": -87.4139119,
      "label": "Indiana Theatre"
    },
    {
      "date": "2016-05-02",
      "city": "Carmel, IN",
      "venue": "The Palladium at the Center for the Performing Arts",
      "phase": "campaign-2016",
      "type": "rally",
      "source": "https://en.wikipedia.org/wiki/List_of_rallies_for_the_2016_Donald_Trump_presidential_campaign",
      "lat": 39.9784186,
      "lng": -86.1283681,
      "label": "The Palladium at the Center for the Performing Arts"
    },
    {
      "date": "2016-05-02",
      "city": "South Bend, IN",
      "venue": "Century Center",
      "phase": "campaign-2016",
      "type": "rally",
      "source": "https://en.wikipedia.org/wiki/List_of_rallies_for_the_2016_Donald_Trump_presidential_campaign",
      "lat": 41.6833813,
      "lng": -86.2500066,
      "label": "Century Center"
    },
    {
      "date": "2016-05-05",
      "city": "Charleston, WV",
      "venue": "Charleston Civic Center",
      "phase": "campaign-2016",
      "type": "rally",
      "source": "https://en.wikipedia.org/wiki/List_of_rallies_for_the_2016_Donald_Trump_presidential_campaign",
      "lat": 38.3505995,
      "lng": -81.6332812,
      "label": "Charleston Civic Center"
    },
    {
      "date": "2016-05-06",
      "city": "Eugene, OR",
      "venue": "Lane Events Center",
      "phase": "campaign-2016",
      "type": "rally",
      "source": "https://en.wikipedia.org/wiki/List_of_rallies_for_the_2016_Donald_Trump_presidential_campaign",
      "lat": 44.0505054,
      "lng": -123.0950506,
      "label": "Lane Events Center"
    },
    {
      "date": "2016-05-06",
      "city": "Omaha, NE",
      "venue": "Werner Enterprises Hangar, Eppley Airfield",
      "phase": "campaign-2016",
      "type": "rally",
      "source": "https://en.wikipedia.org/wiki/List_of_rallies_for_the_2016_Donald_Trump_presidential_campaign",
      "lat": 41.2587459,
      "lng": -95.9383758,
      "label": "Werner Enterprises Hangar, Eppley Airfield"
    },
    {
      "date": "2016-05-07",
      "city": "Lynden, WA",
      "venue": "Northwest Washington Fair and Event Center",
      "phase": "campaign-2016",
      "type": "rally",
      "source": "https://en.wikipedia.org/wiki/List_of_rallies_for_the_2016_Donald_Trump_presidential_campaign",
      "lat": 48.9466041,
      "lng": -122.4569315,
      "label": "Northwest Washington Fair and Event Center"
    },
    {
      "date": "2016-05-07",
      "city": "Spokane, Spokane Convention Center",
      "venue": "10,000",
      "phase": "campaign-2016",
      "type": "rally",
      "source": "https://en.wikipedia.org/wiki/List_of_rallies_for_the_2016_Donald_Trump_presidential_campaign",
      "lat": 47.660981,
      "lng": -117.412577,
      "label": "10,000"
    },
    {
      "date": "2016-05-24",
      "city": "Albuquerque, NM",
      "venue": "Albuquerque Convention Center",
      "phase": "campaign-2016",
      "type": "rally",
      "source": "https://en.wikipedia.org/wiki/List_of_rallies_for_the_2016_Donald_Trump_presidential_campaign",
      "lat": 35.0841034,
      "lng": -106.650985,
      "label": "Albuquerque Convention Center"
    },
    {
      "date": "2016-05-25",
      "city": "Anaheim, CA",
      "venue": "Anaheim Convention Center",
      "phase": "campaign-2016",
      "type": "rally",
      "source": "https://en.wikipedia.org/wiki/List_of_rallies_for_the_2016_Donald_Trump_presidential_campaign",
      "lat": 33.8347516,
      "lng": -117.911732,
      "label": "Anaheim Convention Center"
    },
    {
      "date": "2016-05-26",
      "city": "Billings, MT",
      "venue": "Rimrock Auto Arena at MetraPark",
      "phase": "campaign-2016",
      "type": "rally",
      "source": "https://en.wikipedia.org/wiki/List_of_rallies_for_the_2016_Donald_Trump_presidential_campaign",
      "lat": 45.7874957,
      "lng": -108.49607,
      "label": "Rimrock Auto Arena at MetraPark"
    },
    {
      "date": "2016-05-27",
      "city": "Fresno, CA",
      "venue": "Selland Arena",
      "phase": "campaign-2016",
      "type": "rally",
      "source": "https://en.wikipedia.org/wiki/List_of_rallies_for_the_2016_Donald_Trump_presidential_campaign",
      "lat": 36.7394421,
      "lng": -119.78483,
      "label": "Selland Arena"
    },
    {
      "date": "2016-06-01",
      "city": "Sacramento, CA",
      "venue": "Sacramento Jet Center, Sacramento International Airport",
      "phase": "campaign-2016",
      "type": "rally",
      "source": "https://en.wikipedia.org/wiki/List_of_rallies_for_the_2016_Donald_Trump_presidential_campaign",
      "lat": 38.5810606,
      "lng": -121.493895,
      "label": "Sacramento Jet Center, Sacramento International Airport"
    },
    {
      "date": "2016-06-02",
      "city": "San Jose, CA",
      "venue": "South Hall, San Jose Convention Center",
      "phase": "campaign-2016",
      "type": "rally",
      "source": "https://en.wikipedia.org/wiki/List_of_rallies_for_the_2016_Donald_Trump_presidential_campaign",
      "lat": 37.3361663,
      "lng": -121.890591,
      "label": "South Hall, San Jose Convention Center"
    },
    {
      "date": "2016-06-03",
      "city": "Redding, CA",
      "venue": "Redding Municipal Airport",
      "phase": "campaign-2016",
      "type": "rally",
      "source": "https://en.wikipedia.org/wiki/List_of_rallies_for_the_2016_Donald_Trump_presidential_campaign",
      "lat": 40.5863563,
      "lng": -122.391675,
      "label": "Redding Municipal Airport"
    },
    {
      "date": "2016-06-10",
      "city": "Richmond, VA",
      "venue": "Richmond Coliseum",
      "phase": "campaign-2016",
      "type": "rally",
      "source": "https://en.wikipedia.org/wiki/List_of_rallies_for_the_2016_Donald_Trump_presidential_campaign",
      "lat": 37.5385087,
      "lng": -77.43428,
      "label": "Richmond Coliseum"
    },
    {
      "date": "2016-06-11",
      "city": "Moon, PA",
      "venue": "Atlantic Aviation PIT, Pittsburgh International Airport",
      "phase": "campaign-2016",
      "type": "rally",
      "source": "https://en.wikipedia.org/wiki/List_of_rallies_for_the_2016_Donald_Trump_presidential_campaign",
      "lat": 40.5061,
      "lng": -80.2082,
      "label": "Atlantic Aviation PIT, Pittsburgh International Airport"
    },
    {
      "date": "2016-06-14",
      "city": "Greensboro, NC",
      "venue": "Greensboro Coliseum Complex",
      "phase": "campaign-2016",
      "type": "rally",
      "source": "https://en.wikipedia.org/wiki/List_of_rallies_for_the_2016_Donald_Trump_presidential_campaign",
      "lat": 36.0726355,
      "lng": -79.7919754,
      "label": "Greensboro Coliseum Complex"
    },
    {
      "date": "2016-06-15",
      "city": "Atlanta, GA",
      "venue": "Fox Theatre",
      "phase": "campaign-2016",
      "type": "rally",
      "source": "https://en.wikipedia.org/wiki/List_of_rallies_for_the_2016_Donald_Trump_presidential_campaign",
      "lat": 33.7544657,
      "lng": -84.3898151,
      "label": "Fox Theatre"
    },
    {
      "date": "2016-06-16",
      "city": "Dallas, TX",
      "venue": "Gilley's Club",
      "phase": "campaign-2016",
      "type": "rally",
      "source": "https://en.wikipedia.org/wiki/List_of_rallies_for_the_2016_Donald_Trump_presidential_campaign",
      "lat": 32.7762719,
      "lng": -96.7968559,
      "label": "Gilley's Club"
    },
    {
      "date": "2016-06-18",
      "city": "Las Vegas, NV",
      "venue": "Myst\u00e8re Theatre , Treasure Island Hotel and Casino",
      "phase": "campaign-2016",
      "type": "rally",
      "source": "https://en.wikipedia.org/wiki/List_of_rallies_for_the_2016_Donald_Trump_presidential_campaign",
      "lat": 36.1674263,
      "lng": -115.1484131,
      "label": "Myst\u00e8re Theatre , Treasure Island Hotel and Casino"
    },
    {
      "date": "2016-06-28",
      "city": "St. Clairsville, OH",
      "venue": "Health and Physical Education Center, Ohio University Eastern Campus",
      "phase": "campaign-2016",
      "type": "rally",
      "source": "https://en.wikipedia.org/wiki/List_of_rallies_for_the_2016_Donald_Trump_presidential_campaign",
      "lat": 40.0806266,
      "lng": -80.9000916,
      "label": "Health and Physical Education Center, Ohio University Eastern Campus"
    },
    {
      "date": "2016-06-29",
      "city": "Bangor, ME",
      "venue": "Cross Insurance Center",
      "phase": "campaign-2016",
      "type": "rally",
      "source": "https://en.wikipedia.org/wiki/List_of_rallies_for_the_2016_Donald_Trump_presidential_campaign",
      "lat": 44.8016255,
      "lng": -68.7713289,
      "label": "Cross Insurance Center"
    },
    {
      "date": "2016-07-05",
      "city": "Raleigh, NC",
      "venue": "Raleigh Memorial Auditorium , Duke Energy Center for the Performing Arts",
      "phase": "campaign-2016",
      "type": "rally",
      "source": "https://en.wikipedia.org/wiki/List_of_rallies_for_the_2016_Donald_Trump_presidential_campaign",
      "lat": 35.7803977,
      "lng": -78.6390989,
      "label": "Raleigh Memorial Auditorium , Duke Energy Center for the Performing Arts"
    },
    {
      "date": "2016-07-06",
      "city": "Cincinnati, OH",
      "venue": "Sharonville Convention Center",
      "phase": "campaign-2016",
      "type": "rally",
      "source": "https://en.wikipedia.org/wiki/List_of_rallies_for_the_2016_Donald_Trump_presidential_campaign",
      "lat": 39.1014537,
      "lng": -84.5124602,
      "label": "Sharonville Convention Center"
    },
    {
      "date": "2016-07-12",
      "city": "Westfield, IN",
      "venue": "Grand Park Event Center, Grand Park",
      "phase": "campaign-2016",
      "type": "rally",
      "source": "https://en.wikipedia.org/wiki/List_of_rallies_for_the_2016_Donald_Trump_presidential_campaign",
      "lat": 40.0428151,
      "lng": -86.1274888,
      "label": "Grand Park Event Center, Grand Park"
    },
    {
      "date": "2016-07-25",
      "city": "Winston-Salem, NC",
      "venue": "Winston-Salem Fairground Annex , Dixie Classic Fairgrounds",
      "phase": "campaign-2016",
      "type": "rally",
      "source": "https://en.wikipedia.org/wiki/List_of_rallies_for_the_2016_Donald_Trump_presidential_campaign",
      "lat": 36.0998131,
      "lng": -80.2440518,
      "label": "Winston-Salem Fairground Annex , Dixie Classic Fairgrounds"
    },
    {
      "date": "2016-07-27",
      "city": "Scranton, PA",
      "venue": "Student Union Gymnasium, Lackawanna College",
      "phase": "campaign-2016",
      "type": "rally",
      "source": "https://en.wikipedia.org/wiki/List_of_rallies_for_the_2016_Donald_Trump_presidential_campaign",
      "lat": 41.4086874,
      "lng": -75.6621294,
      "label": "Student Union Gymnasium, Lackawanna College"
    },
    {
      "date": "2016-07-28",
      "city": "Cedar Rapids, IA",
      "venue": "DoubleTree Hotel Cedar Rapids Convention Complex",
      "phase": "campaign-2016",
      "type": "rally",
      "source": "https://en.wikipedia.org/wiki/List_of_rallies_for_the_2016_Donald_Trump_presidential_campaign",
      "lat": 41.9758872,
      "lng": -91.6704053,
      "label": "DoubleTree Hotel Cedar Rapids Convention Complex"
    },
    {
      "date": "2016-07-29",
      "city": "Colorado Springs, CO",
      "venue": "Gallogly Event Center, University of Colorado Colorado Springs",
      "phase": "campaign-2016",
      "type": "rally",
      "source": "https://en.wikipedia.org/wiki/List_of_rallies_for_the_2016_Donald_Trump_presidential_campaign",
      "lat": 38.8339578,
      "lng": -104.825348,
      "label": "Gallogly Event Center, University of Colorado Colorado Springs"
    },
    {
      "date": "2016-08-01",
      "city": "Columbus, OH",
      "venue": "Greater Columbus Convention Center",
      "phase": "campaign-2016",
      "type": "rally",
      "source": "https://en.wikipedia.org/wiki/List_of_rallies_for_the_2016_Donald_Trump_presidential_campaign",
      "lat": 39.9622601,
      "lng": -83.0007065,
      "label": "Greater Columbus Convention Center"
    },
    {
      "date": "2016-08-02",
      "city": "Ashburn, VA",
      "venue": "Briar Woods High School",
      "phase": "campaign-2016",
      "type": "rally",
      "source": "https://en.wikipedia.org/wiki/List_of_rallies_for_the_2016_Donald_Trump_presidential_campaign",
      "lat": 39.0437192,
      "lng": -77.4874899,
      "label": "Briar Woods High School"
    },
    {
      "date": "2016-08-03",
      "city": "Daytona Beach, FL",
      "venue": "Ocean Center",
      "phase": "campaign-2016",
      "type": "rally",
      "source": "https://en.wikipedia.org/wiki/List_of_rallies_for_the_2016_Donald_Trump_presidential_campaign",
      "lat": 29.2108147,
      "lng": -81.0228331,
      "label": "Ocean Center"
    },
    {
      "date": "2016-08-04",
      "city": "Portland, ME",
      "venue": "Merrill Auditorium",
      "phase": "campaign-2016",
      "type": "rally",
      "source": "https://en.wikipedia.org/wiki/List_of_rallies_for_the_2016_Donald_Trump_presidential_campaign",
      "lat": 43.6573605,
      "lng": -70.2586618,
      "label": "Merrill Auditorium"
    },
    {
      "date": "2016-08-05",
      "city": "Des Moines, IA",
      "venue": "Iowa Events Center",
      "phase": "campaign-2016",
      "type": "rally",
      "source": "https://en.wikipedia.org/wiki/List_of_rallies_for_the_2016_Donald_Trump_presidential_campaign",
      "lat": 41.5868654,
      "lng": -93.6249494,
      "label": "Iowa Events Center"
    },
    {
      "date": "2016-08-06",
      "city": "Windham, NH",
      "venue": "Windham High School",
      "phase": "campaign-2016",
      "type": "rally",
      "source": "https://en.wikipedia.org/wiki/List_of_rallies_for_the_2016_Donald_Trump_presidential_campaign",
      "lat": 42.8006441,
      "lng": -71.304229,
      "label": "Windham High School"
    },
    {
      "date": "2016-08-09",
      "city": "Fayetteville, NC",
      "venue": "Crown Arena",
      "phase": "campaign-2016",
      "type": "rally",
      "source": "https://en.wikipedia.org/wiki/List_of_rallies_for_the_2016_Donald_Trump_presidential_campaign",
      "lat": 35.0525759,
      "lng": -78.878292,
      "label": "Crown Arena"
    },
    {
      "date": "2016-08-10",
      "city": "Sunrise, FL",
      "venue": "BB&T Center",
      "phase": "campaign-2016",
      "type": "rally",
      "source": "https://en.wikipedia.org/wiki/List_of_rallies_for_the_2016_Donald_Trump_presidential_campaign",
      "lat": 26.1666888,
      "lng": -80.2787573,
      "label": "BB&T Center"
    },
    {
      "date": "2016-08-11",
      "city": "Kissimmee, Silver Spurs Arena",
      "venue": "8,000",
      "phase": "campaign-2016",
      "type": "rally",
      "source": "https://en.wikipedia.org/wiki/List_of_rallies_for_the_2016_Donald_Trump_presidential_campaign",
      "lat": 28.2989694,
      "lng": -81.3690129,
      "label": "8,000"
    },
    {
      "date": "2016-08-12",
      "city": "Altoona, PA",
      "venue": "Blair County Convention Center",
      "phase": "campaign-2016",
      "type": "rally",
      "source": "https://en.wikipedia.org/wiki/List_of_rallies_for_the_2016_Donald_Trump_presidential_campaign",
      "lat": 40.5193586,
      "lng": -78.3968299,
      "label": "Blair County Convention Center"
    },
    {
      "date": "2016-08-13",
      "city": "Fairfield, CT",
      "venue": "William H. Pitt Center , Sacred Heart University",
      "phase": "campaign-2016",
      "type": "rally",
      "source": "https://en.wikipedia.org/wiki/List_of_rallies_for_the_2016_Donald_Trump_presidential_campaign",
      "lat": 41.1412078,
      "lng": -73.2637258,
      "label": "William H. Pitt Center , Sacred Heart University"
    },
    {
      "date": "2016-08-16",
      "city": "West Bend, WI",
      "venue": "Ziegler Family Expo Center, Washington County Fair Park & Conference Center",
      "phase": "campaign-2016",
      "type": "rally",
      "source": "https://en.wikipedia.org/wiki/List_of_rallies_for_the_2016_Donald_Trump_presidential_campaign",
      "lat": 43.4252776,
      "lng": -88.1834277,
      "label": "Ziegler Family Expo Center, Washington County Fair Park & Conference Center"
    },
    {
      "date": "2016-08-18",
      "city": "Charlotte, NC",
      "venue": "Charlotte Convention Center",
      "phase": "campaign-2016",
      "type": "rally",
      "source": "https://en.wikipedia.org/wiki/List_of_rallies_for_the_2016_Donald_Trump_presidential_campaign",
      "lat": 35.2272086,
      "lng": -80.8430827,
      "label": "Charlotte Convention Center"
    },
    {
      "date": "2016-08-19",
      "city": "Dimondale, MI",
      "venue": "The Summit Sports and Ice Complex",
      "phase": "campaign-2016",
      "type": "rally",
      "source": "https://en.wikipedia.org/wiki/List_of_rallies_for_the_2016_Donald_Trump_presidential_campaign",
      "lat": 42.6455931,
      "lng": -84.648949,
      "label": "The Summit Sports and Ice Complex"
    },
    {
      "date": "2016-08-20",
      "city": "Fredericksburg, VA",
      "venue": "Fredericksburg Expo & Conference Center",
      "phase": "campaign-2016",
      "type": "rally",
      "source": "https://en.wikipedia.org/wiki/List_of_rallies_for_the_2016_Donald_Trump_presidential_campaign",
      "lat": 38.3031837,
      "lng": -77.4605399,
      "label": "Fredericksburg Expo & Conference Center"
    },
    {
      "date": "2016-08-22",
      "city": "Akron, OH",
      "venue": "James A. Rhodes Arena , University of Akron",
      "phase": "campaign-2016",
      "type": "rally",
      "source": "https://en.wikipedia.org/wiki/List_of_rallies_for_the_2016_Donald_Trump_presidential_campaign",
      "lat": 41.083064,
      "lng": -81.518485,
      "label": "James A. Rhodes Arena , University of Akron"
    },
    {
      "date": "2016-08-23",
      "city": "Austin, TX",
      "venue": "Luedecke Arena",
      "phase": "campaign-2016",
      "type": "rally",
      "source": "https://en.wikipedia.org/wiki/List_of_rallies_for_the_2016_Donald_Trump_presidential_campaign",
      "lat": 30.2711286,
      "lng": -97.7436995,
      "label": "Luedecke Arena"
    },
    {
      "date": "2016-08-24",
      "city": "Tampa, FL",
      "venue": "Entertainment Hall, Florida State Fairgrounds",
      "phase": "campaign-2016",
      "type": "rally",
      "source": "https://en.wikipedia.org/wiki/List_of_rallies_for_the_2016_Donald_Trump_presidential_campaign",
      "lat": 27.9449854,
      "lng": -82.4583107,
      "label": "Entertainment Hall, Florida State Fairgrounds"
    },
    {
      "date": "2016-08-25",
      "city": "Manchester, NH",
      "venue": "Radisson Hotel Manchester Downtown",
      "phase": "campaign-2016",
      "type": "rally",
      "source": "https://en.wikipedia.org/wiki/List_of_rallies_for_the_2016_Donald_Trump_presidential_campaign",
      "lat": 42.9956397,
      "lng": -71.4547891,
      "label": "Radisson Hotel Manchester Downtown"
    },
    {
      "date": "2016-08-30",
      "city": "Everett, WA",
      "venue": "Xfinity Arena",
      "phase": "campaign-2016",
      "type": "rally",
      "source": "https://en.wikipedia.org/wiki/List_of_rallies_for_the_2016_Donald_Trump_presidential_campaign",
      "lat": 47.9793437,
      "lng": -122.2127011,
      "label": "Xfinity Arena"
    },
    {
      "date": "2016-08-31",
      "city": "Phoenix, AZ",
      "venue": "Phoenix Convention Center",
      "phase": "campaign-2016",
      "type": "rally",
      "source": "https://en.wikipedia.org/wiki/List_of_rallies_for_the_2016_Donald_Trump_presidential_campaign",
      "lat": 33.4484367,
      "lng": -112.074141,
      "label": "Phoenix Convention Center"
    },
    {
      "date": "2016-09-01",
      "city": "Wilmington, OH",
      "venue": "Roberts Centre",
      "phase": "campaign-2016",
      "type": "rally",
      "source": "https://en.wikipedia.org/wiki/List_of_rallies_for_the_2016_Donald_Trump_presidential_campaign",
      "lat": 39.4453393,
      "lng": -83.8285375,
      "label": "Roberts Centre"
    },
    {
      "date": "2016-09-06",
      "city": "Greenville, NC",
      "venue": "Greenville Convention Center",
      "phase": "campaign-2016",
      "type": "rally",
      "source": "https://en.wikipedia.org/wiki/List_of_rallies_for_the_2016_Donald_Trump_presidential_campaign",
      "lat": 35.613224,
      "lng": -77.3724593,
      "label": "Greenville Convention Center"
    },
    {
      "date": "2016-09-09",
      "city": "Pensacola, FL",
      "venue": "Pensacola Bay Center",
      "phase": "campaign-2016",
      "type": "rally",
      "source": "https://en.wikipedia.org/wiki/List_of_rallies_for_the_2016_Donald_Trump_presidential_campaign",
      "lat": 30.421309,
      "lng": -87.2169149,
      "label": "Pensacola Bay Center"
    },
    {
      "date": "2016-09-12",
      "city": "Asheville, NC",
      "venue": "U.S. Cellular Center",
      "phase": "campaign-2016",
      "type": "rally",
      "source": "https://en.wikipedia.org/wiki/List_of_rallies_for_the_2016_Donald_Trump_presidential_campaign",
      "lat": 35.595363,
      "lng": -82.5508407,
      "label": "U.S. Cellular Center"
    },
    {
      "date": "2016-09-14",
      "city": "Canton, OH",
      "venue": "Canton Memorial Civic Center",
      "phase": "campaign-2016",
      "type": "rally",
      "source": "https://en.wikipedia.org/wiki/List_of_rallies_for_the_2016_Donald_Trump_presidential_campaign",
      "lat": 40.7985464,
      "lng": -81.3749508,
      "label": "Canton Memorial Civic Center"
    },
    {
      "date": "2016-09-15",
      "city": "Laconia, NH",
      "venue": "Laconia Middle School",
      "phase": "campaign-2016",
      "type": "rally",
      "source": "https://en.wikipedia.org/wiki/List_of_rallies_for_the_2016_Donald_Trump_presidential_campaign",
      "lat": 43.5278546,
      "lng": -71.470351,
      "label": "Laconia Middle School"
    },
    {
      "date": "2016-09-16",
      "city": "Miami, FL",
      "venue": "Knight Center Complex",
      "phase": "campaign-2016",
      "type": "rally",
      "source": "https://en.wikipedia.org/wiki/List_of_rallies_for_the_2016_Donald_Trump_presidential_campaign",
      "lat": 25.7741566,
      "lng": -80.1935973,
      "label": "Knight Center Complex"
    },
    {
      "date": "2016-09-17",
      "city": "Colorado Springs, CO",
      "venue": "Colorado Jet Center, Colorado Springs Airport",
      "phase": "campaign-2016",
      "type": "rally",
      "source": "https://en.wikipedia.org/wiki/List_of_rallies_for_the_2016_Donald_Trump_presidential_campaign",
      "lat": 38.8339578,
      "lng": -104.825348,
      "label": "Colorado Jet Center, Colorado Springs Airport"
    },
    {
      "date": "2016-09-19",
      "city": "Estero, FL",
      "venue": "Germain Arena",
      "phase": "campaign-2016",
      "type": "rally",
      "source": "https://en.wikipedia.org/wiki/List_of_rallies_for_the_2016_Donald_Trump_presidential_campaign",
      "lat": 26.4381474,
      "lng": -81.8067537,
      "label": "Germain Arena"
    },
    {
      "date": "2016-09-20",
      "city": "High Point, NC",
      "venue": "Millis Athletic Convocation Center , High Point University",
      "phase": "campaign-2016",
      "type": "rally",
      "source": "https://en.wikipedia.org/wiki/List_of_rallies_for_the_2016_Donald_Trump_presidential_campaign",
      "lat": 35.9556924,
      "lng": -80.0053176,
      "label": "Millis Athletic Convocation Center , High Point University"
    },
    {
      "date": "2016-09-21",
      "city": "Toledo, OH",
      "venue": "Stranahan Theater",
      "phase": "campaign-2016",
      "type": "rally",
      "source": "https://en.wikipedia.org/wiki/List_of_rallies_for_the_2016_Donald_Trump_presidential_campaign",
      "lat": 41.6529143,
      "lng": -83.5378173,
      "label": "Stranahan Theater"
    },
    {
      "date": "2016-09-22",
      "city": "Chester Township, PA",
      "venue": "Sun Center Studios",
      "phase": "campaign-2016",
      "type": "rally",
      "source": "https://en.wikipedia.org/wiki/List_of_rallies_for_the_2016_Donald_Trump_presidential_campaign",
      "lat": 39.8514464,
      "lng": -75.4028668,
      "label": "Sun Center Studios"
    },
    {
      "date": "2016-09-24",
      "city": "Roanoke, VA",
      "venue": "Berglund Center",
      "phase": "campaign-2016",
      "type": "rally",
      "source": "https://en.wikipedia.org/wiki/List_of_rallies_for_the_2016_Donald_Trump_presidential_campaign",
      "lat": 37.270973,
      "lng": -79.9414313,
      "label": "Berglund Center"
    },
    {
      "date": "2016-09-27",
      "city": "Melbourne, FL",
      "venue": "Melbourne Orlando International Airport",
      "phase": "campaign-2016",
      "type": "rally",
      "source": "https://en.wikipedia.org/wiki/List_of_rallies_for_the_2016_Donald_Trump_presidential_campaign",
      "lat": 28.0785034,
      "lng": -80.6077908,
      "label": "Melbourne Orlando International Airport"
    },
    {
      "date": "2016-09-28",
      "city": "Council Bluffs, IA",
      "venue": "Mid-America Center",
      "phase": "campaign-2016",
      "type": "rally",
      "source": "https://en.wikipedia.org/wiki/List_of_rallies_for_the_2016_Donald_Trump_presidential_campaign",
      "lat": 41.258841,
      "lng": -95.8519484,
      "label": "Mid-America Center"
    },
    {
      "date": "2016-09-29",
      "city": "Bedford, NH",
      "venue": "NH Sportsplex",
      "phase": "campaign-2016",
      "type": "rally",
      "source": "https://en.wikipedia.org/wiki/List_of_rallies_for_the_2016_Donald_Trump_presidential_campaign",
      "lat": 42.9464737,
      "lng": -71.5159015,
      "label": "NH Sportsplex"
    },
    {
      "date": "2016-09-30",
      "city": "Novi, MI",
      "venue": "Suburban Collection Showplace",
      "phase": "campaign-2016",
      "type": "rally",
      "source": "https://en.wikipedia.org/wiki/List_of_rallies_for_the_2016_Donald_Trump_presidential_campaign",
      "lat": 42.48059,
      "lng": -83.4754913,
      "label": "Suburban Collection Showplace"
    },
    {
      "date": "2016-10-01",
      "city": "Manheim, PA",
      "venue": "Spooky Nook Sports",
      "phase": "campaign-2016",
      "type": "rally",
      "source": "https://en.wikipedia.org/wiki/List_of_rallies_for_the_2016_Donald_Trump_presidential_campaign",
      "lat": 40.1637359,
      "lng": -76.3952429,
      "label": "Spooky Nook Sports"
    },
    {
      "date": "2016-10-03",
      "city": "Pueblo, CO",
      "venue": "Pueblo Convention Center",
      "phase": "campaign-2016",
      "type": "rally",
      "source": "https://en.wikipedia.org/wiki/List_of_rallies_for_the_2016_Donald_Trump_presidential_campaign",
      "lat": 38.263995,
      "lng": -104.6141867,
      "label": "Pueblo Convention Center"
    },
    {
      "date": "2016-10-04",
      "city": "Prescott Valley, AZ",
      "venue": "Prescott Valley Event Center",
      "phase": "campaign-2016",
      "type": "rally",
      "source": "https://en.wikipedia.org/wiki/List_of_rallies_for_the_2016_Donald_Trump_presidential_campaign",
      "lat": 34.5950776,
      "lng": -112.3338634,
      "label": "Prescott Valley Event Center"
    },
    {
      "date": "2016-10-05",
      "city": "Henderson, NV",
      "venue": "Henderson Pavilion",
      "phase": "campaign-2016",
      "type": "rally",
      "source": "https://en.wikipedia.org/wiki/List_of_rallies_for_the_2016_Donald_Trump_presidential_campaign",
      "lat": 36.0319602,
      "lng": -114.9822716,
      "label": "Henderson Pavilion"
    },
    {
      "date": "2016-10-10",
      "city": "Ambridge, PA",
      "venue": "Ambridge Area High School",
      "phase": "campaign-2016",
      "type": "rally",
      "source": "https://en.wikipedia.org/wiki/List_of_rallies_for_the_2016_Donald_Trump_presidential_campaign",
      "lat": 40.586438,
      "lng": -80.2273615,
      "label": "Ambridge Area High School"
    },
    {
      "date": "2016-10-11",
      "city": "Panama City Beach, FL",
      "venue": "Aaron Bessant Amphitheater, Aaron Bessant Park",
      "phase": "campaign-2016",
      "type": "rally",
      "source": "https://en.wikipedia.org/wiki/List_of_rallies_for_the_2016_Donald_Trump_presidential_campaign",
      "lat": 30.1765914,
      "lng": -85.805386,
      "label": "Aaron Bessant Amphitheater, Aaron Bessant Park"
    },
    {
      "date": "2016-10-13",
      "city": "West Palm Beach, South Florida Fairgrounds Expo Center",
      "venue": "6,000",
      "phase": "campaign-2016",
      "type": "rally",
      "source": "https://en.wikipedia.org/wiki/List_of_rallies_for_the_2016_Donald_Trump_presidential_campaign",
      "lat": 26.6846666,
      "lng": -80.190756,
      "label": "6,000"
    },
    {
      "date": "2016-10-14",
      "city": "Greensboro, NC",
      "venue": "White Oak Amphitheatre",
      "phase": "campaign-2016",
      "type": "rally",
      "source": "https://en.wikipedia.org/wiki/List_of_rallies_for_the_2016_Donald_Trump_presidential_campaign",
      "lat": 36.0726355,
      "lng": -79.7919754,
      "label": "White Oak Amphitheatre"
    },
    {
      "date": "2016-10-15",
      "city": "Portsmouth, NH",
      "venue": "Toyota of Portsmouth",
      "phase": "campaign-2016",
      "type": "rally",
      "source": "https://en.wikipedia.org/wiki/List_of_rallies_for_the_2016_Donald_Trump_presidential_campaign",
      "lat": 43.0751306,
      "lng": -70.7601826,
      "label": "Toyota of Portsmouth"
    },
    {
      "date": "2016-10-17",
      "city": "Green Bay, WI",
      "venue": "KI Convention Center",
      "phase": "campaign-2016",
      "type": "rally",
      "source": "https://en.wikipedia.org/wiki/List_of_rallies_for_the_2016_Donald_Trump_presidential_campaign",
      "lat": 44.5126379,
      "lng": -88.0125794,
      "label": "KI Convention Center"
    },
    {
      "date": "2016-10-20",
      "city": "Delaware, OH",
      "venue": "Delaware County Fair",
      "phase": "campaign-2016",
      "type": "rally",
      "source": "https://en.wikipedia.org/wiki/List_of_rallies_for_the_2016_Donald_Trump_presidential_campaign",
      "lat": 40.2317686,
      "lng": -82.9651045,
      "label": "Delaware County Fair"
    },
    {
      "date": "2016-10-21",
      "city": "Fletcher, NC",
      "venue": "WNC Agricultural Center",
      "phase": "campaign-2016",
      "type": "rally",
      "source": "https://en.wikipedia.org/wiki/List_of_rallies_for_the_2016_Donald_Trump_presidential_campaign",
      "lat": 35.4309336,
      "lng": -82.5011239,
      "label": "WNC Agricultural Center"
    },
    {
      "date": "2016-10-22",
      "city": "Virginia Beach, VA",
      "venue": "Library Plaza, Regent University",
      "phase": "campaign-2016",
      "type": "rally",
      "source": "https://en.wikipedia.org/wiki/List_of_rallies_for_the_2016_Donald_Trump_presidential_campaign",
      "lat": 36.8496579,
      "lng": -75.9760751,
      "label": "Library Plaza, Regent University"
    },
    {
      "date": "2016-10-23",
      "city": "Naples, FL",
      "venue": "Collier County Fairgrounds",
      "phase": "campaign-2016",
      "type": "rally",
      "source": "https://en.wikipedia.org/wiki/List_of_rallies_for_the_2016_Donald_Trump_presidential_campaign",
      "lat": 26.1421976,
      "lng": -81.7942944,
      "label": "Collier County Fairgrounds"
    },
    {
      "date": "2016-10-24",
      "city": "St. Augustine, St. Augustine Amphitheatre",
      "venue": "",
      "phase": "campaign-2016",
      "type": "rally",
      "source": "https://en.wikipedia.org/wiki/List_of_rallies_for_the_2016_Donald_Trump_presidential_campaign",
      "lat": 29.8755128,
      "lng": -81.282771,
      "label": "St. Augustine, St. Augustine Amphitheatre"
    },
    {
      "date": "2016-10-26",
      "city": "Kinston, NC",
      "venue": "Kinston Jet Center, Kinston Regional Jetport",
      "phase": "campaign-2016",
      "type": "rally",
      "source": "https://en.wikipedia.org/wiki/List_of_rallies_for_the_2016_Donald_Trump_presidential_campaign",
      "lat": 35.2626635,
      "lng": -77.5816353,
      "label": "Kinston Jet Center, Kinston Regional Jetport"
    },
    {
      "date": "2016-10-27",
      "city": "Springfield, OH",
      "venue": "Clark County Fairgrounds",
      "phase": "campaign-2016",
      "type": "rally",
      "source": "https://en.wikipedia.org/wiki/List_of_rallies_for_the_2016_Donald_Trump_presidential_campaign",
      "lat": 39.9234046,
      "lng": -83.810138,
      "label": "Clark County Fairgrounds"
    },
    {
      "date": "2016-10-28",
      "city": "Manchester, NH",
      "venue": "Radisson Hotel Manchester Downtown",
      "phase": "campaign-2016",
      "type": "rally",
      "source": "https://en.wikipedia.org/wiki/List_of_rallies_for_the_2016_Donald_Trump_presidential_campaign",
      "lat": 42.9956397,
      "lng": -71.4547891,
      "label": "Radisson Hotel Manchester Downtown"
    },
    {
      "date": "2016-10-29",
      "city": "Golden, CO",
      "venue": "Jefferson County Events Center",
      "phase": "campaign-2016",
      "type": "rally",
      "source": "https://en.wikipedia.org/wiki/List_of_rallies_for_the_2016_Donald_Trump_presidential_campaign",
      "lat": 39.7546349,
      "lng": -105.22058,
      "label": "Jefferson County Events Center"
    },
    {
      "date": "2016-10-30",
      "city": "Las Vegas, NV",
      "venue": "The Venetian Las Vegas",
      "phase": "campaign-2016",
      "type": "rally",
      "source": "https://en.wikipedia.org/wiki/List_of_rallies_for_the_2016_Donald_Trump_presidential_campaign",
      "lat": 36.1674263,
      "lng": -115.1484131,
      "label": "The Venetian Las Vegas"
    },
    {
      "date": "2016-10-31",
      "city": "Grand Rapids, MI",
      "venue": "DeltaPlex Arena",
      "phase": "campaign-2016",
      "type": "rally",
      "source": "https://en.wikipedia.org/wiki/List_of_rallies_for_the_2016_Donald_Trump_presidential_campaign",
      "lat": 42.9632425,
      "lng": -85.6678639,
      "label": "DeltaPlex Arena"
    },
    {
      "date": "2016-11-01",
      "city": "Eau Claire, WI",
      "venue": "W.L. Zorn Arena",
      "phase": "campaign-2016",
      "type": "rally",
      "source": "https://en.wikipedia.org/wiki/List_of_rallies_for_the_2016_Donald_Trump_presidential_campaign",
      "lat": 44.811349,
      "lng": -91.4984941,
      "label": "W.L. Zorn Arena"
    },
    {
      "date": "2016-11-02",
      "city": "Orlando, FL",
      "venue": "CFE Arena , Central Florida Fairgrounds",
      "phase": "campaign-2016",
      "type": "rally",
      "source": "https://en.wikipedia.org/wiki/List_of_rallies_for_the_2016_Donald_Trump_presidential_campaign",
      "lat": 28.5421218,
      "lng": -81.379045,
      "label": "CFE Arena , Central Florida Fairgrounds"
    },
    {
      "date": "2016-11-03",
      "city": "Jacksonville, Jacksonville Equestrian Center",
      "venue": "4,000",
      "phase": "campaign-2016",
      "type": "rally",
      "source": "https://en.wikipedia.org/wiki/List_of_rallies_for_the_2016_Donald_Trump_presidential_campaign",
      "lat": 30.2410387,
      "lng": -81.9079733,
      "label": "4,000"
    },